stop_id,stop_code,stop_name,stop_desc,stop_lat,stop_lon,zone_id,stop_url,location_type,parent_station,stop_timezone,wheelchair_boarding
03700325,,"Slough, Wellington Street",,51.510577904,-0.593269947,,,0,,,0
03700311,,"Sorting Office",,51.509292549,-0.585826097,,,0,,,0
03700309,,"Uxbridge Road Sainsbury's",,51.506753511,-0.578858564,,,0,,,0
03700074,,"St Bernards Convent",,51.504969186,-0.573352304,,,0,,,0
03700077,,"Kaywood Close",,51.502711724,-0.568149462,,,0,,,0
03700079,,"Upton Court Road Junction",,51.500555385,-0.563880426,,,0,,,0
03700081,,"Drake Avenue",,51.499344821,-0.559754861,,,0,,,0
03700082,,"Cedar Way",,51.497812171,-0.556504081,,,0,,,0
03700085,,"Ditton Park Road",,51.494855715,-0.550100556,,,0,,,0
03700087,,"Langley, London Road/High Street",,51.493545018,-0.546641684,,,0,,,0
03700089,,"Sutton Lane",,51.489685842,-0.537113747,,,0,,,0
03700156,,"Crown Meadow",,51.485601857,-0.529798253,,,0,,,0
03700157,,"Red Lion",,51.484426585,-0.527862932,,,0,,,0
03700160,,"Colnbrook, Ye Olde George",,51.483602755,-0.522416679,,,0,,,0
03700162,,"Coleridge Crescent West",,51.480679203,-0.51618315,,,0,,,0
03700165,,"Poyle Road Junction",,51.479752633,-0.513050934,,,0,,,0
03700167,,"Galleymead Road",,51.479378767,-0.509808524,,,0,,,0
490010009E,,"Moor Bridge",,51.479120959,-0.499462844,,,0,,,0
4900164307,,"Heathrow Airport, Terminal 5",,51.472034598,-0.489616422,,,0,,,0
0380F968G059,,"Bracknell Bus Station",,51.413629662,-0.750854859,,,0,,,0
0380G900G298,,"Bay Road",,51.415895289,-0.73739052,,,0,,,0
0380H221G146,,"Bullbrook Ethyl Labs",,51.414479106,-0.73281354,,,0,,,0
0380H635H978,,"Drovers Way",,51.412904404,-0.726903939,,,0,,,0
0380I005H964,,"Allsmoor Lane",,51.412720667,-0.721588629,,,0,,,0
0380I421H947,,"The Brackens",,51.412502478,-0.71561287,,,0,,,0
0380J063H906,,"The Royal Foresters Hotel",,51.412032434,-0.706394533,,,0,,,0
0380J492H875,,"Fernbank Corner",,51.41168555,-0.700235647,,,0,,,0
036006001285,,"Gainsborough Drive",,51.411463304,-0.696417099,,,0,,,0
036006001284,,"Heatherwood Roundabout",,51.411544158,-0.689153322,,,0,,,0
036006858859,,"High Standing Hill",,51.456072492,-0.654183935,,,0,,,0
036006857858,,"Legoland Roundabout",,51.463782556,-0.644369669,,,0,,,0
036006353354,,"St Leonards Hill",,51.467944163,-0.638012469,,,0,,,0
036006352352,,"Woodland Avenue",,51.469184003,-0.635599992,,,0,,,0
036006350350,,"Prince Albert PH",,51.470513196,-0.631600957,,,0,,,0
036006237238,,"Windsor, Imperial Court",,51.471352975,-0.627285216,,,0,,,0
036006758759,,"Stag Meadow",,51.47106884,-0.622225659,,,0,,,0
036006372372,,"Trevelyan School",,51.471246654,-0.617468954,,,0,,,0
036006235236,,"King Edward VII Hospital",,51.473686514,-0.615436967,,,0,,,0
036006374375,,"All Saints' Church",,51.475467988,-0.61096243,,,0,,,0
036006376377,,"Grove Road",,51.477844848,-0.607419807,,,0,,,0
036006216216,,"Windsor, Parish Church",,51.481541581,-0.606745572,,,0,,,0
036006215215,,"Windsor, Castle Hill",,51.483278446,-0.608377661,,,0,,,0
036006212212,,"Arthur Road",,51.482657525,-0.613653156,,,0,,,0
036006209209,,"Boys School",,51.48334545,-0.622431823,,,0,,,0
03700319,,"Windsor Road, McDonalds",,51.50302575,-0.600125589,,,0,,,0
03700317,,"Albert Street",,51.505191963,-0.598546295,,,0,,,0
03700334,,"Landmark Place",,51.507901814,-0.596561091,,,0,,,0
036006001277,,"Legoland, Staff Entrance",,51.463518347,-0.646407271,,,0,,,0
036006002284,,"Heatherwood Roundabout - west",,51.411234356,-0.689593553,,,0,,,0
036006002285,,"Gainsborough Drive",,51.411238447,-0.695603886,,,0,,,0
0380J430H933,,"Fernbank Corner",,51.412216807,-0.701112104,,,0,,,0
0380J597G229,,"Goaters Road",,51.415696209,-0.697821043,,,0,,,0
0380J826G610,,"The Gold Cup PH",,51.418239323,-0.695246447,,,0,,,0
0380K070G896,,"Ascot Heath",,51.42077115,-0.69166514,,,0,,,0
0380K466F066,,"Royal Hunt Public House",,51.422235636,-0.685927847,,,0,,,0
0380K680F216,,"Beechwood Close",,51.423549487,-0.682812219,,,0,,,0
0380K844F497,,"The Rough",,51.426048932,-0.680381432,,,0,,,0
0380K931F789,,"Brookside, Old Post Office",,51.428659686,-0.679054776,,,0,,,0
0380K979F960,,"Cranbourne Corner",,51.430189056,-0.678320195,,,0,,,0
0380L286E368,,"The Old Hatchet",,51.433806779,-0.673799252,,,0,,,0
0380L277E579,,"Fleur De Lis",,51.435642844,-0.673947503,,,0,,,0
0380K970E680,,"Primary School",,51.436662719,-0.678262871,,,0,,,0
0380K779E937,,"Plaistow Green",,51.439003874,-0.680943373,,,0,,,0
0380L053D422,,"Chilston Manor",,51.443319211,-0.676876433,,,0,,,0
0380L422D723,,"Crouch Lane",,51.445964921,-0.671490066,,,0,,,0
0380L793D998,,"Winkfield, The Squirrel",,51.448376334,-0.666081115,,,0,,,0
036006003016,,"Heatherwood Hospital Entrance",,51.40758145,-0.686994911,,,0,,,0
036006650650,,"Heatherwood Hospital - east",,51.411296553,-0.686313341,,,0,,,0
036006640640,,"Ascot High Street",,51.41094996,-0.676286737,,,0,,,0
036006873875,,"Winkfield Road",,51.412010854,-0.669123951,,,0,,,0
036006002277,,"Legoland, Main Entrance",,51.464256155,-0.654259939,,,0,,,0
490010009W,,"Moor Bridge",,51.478885379,-0.498620939,,,0,,,0
03700168,,"Galleymead Road",,51.478847027,-0.508299392,,,0,,,0
03700166,,"Poyle Road Junction",,51.4796382,-0.512536226,,,0,,,0
03700163,,"Coleridge Crescent West",,51.48047514,-0.516138073,,,0,,,0
03700161,,"Star & Garter",,51.482416377,-0.52032357,,,0,,,0
03700159,,"Colnbrook, Ye Olde George",,51.483610989,-0.523784608,,,0,,,0
03700158,,"Red Lion",,51.484262262,-0.527666591,,,0,,,0
03700155,,"Crown Meadow",,51.486985816,-0.531885405,,,0,,,0
03700091,,"Sutton Lane",,51.4889576,-0.535682277,,,0,,,0
03700086,,"Langley, London Road/High Street",,51.49411179,-0.548842082,,,0,,,0
03700084,,"Ditton Park Road",,51.495911361,-0.55257369,,,0,,,0
03700083,,"Cedar Way",,51.4974466,-0.556025812,,,0,,,0
03700080,,"Drake Avenue",,51.499603971,-0.561821307,,,0,,,0
03700078,,"Upton Court Road Junction",,51.501233936,-0.565688858,,,0,,,0
03700076,,"Kaywood Close",,51.5031137,-0.569404781,,,0,,,0
03700075,,"St Bernards Convent",,51.504733028,-0.573157958,,,0,,,0
03700308,,"Slough Grammar School",,51.505953163,-0.577370513,,,0,,,0
03700518,,"Uxbridge Road Sainsbury's",,51.507443012,-0.580105149,,,0,,,0
03700310,,"Sorting Office",,51.508943336,-0.58520287,,,0,,,0
03700340,,"Slough, Queensmere Car Park",,51.50980576,-0.59036384,,,0,,,0
03700443,,"Landmark Place",,51.508781012,-0.595640666,,,0,,,0
03700316,,"Albert Street",,51.505189381,-0.598330242,,,0,,,0
03700318,,"Windsor Road, McDonalds",,51.502842708,-0.599857445,,,0,,,0
036006001251,,"Boys School",,51.483503529,-0.622110218,,,0,,,0
036006212213,,"Arthur Road",,51.482711118,-0.613622728,,,0,,,0
036006218220,,"Windsor, Theatre Royal",,51.484213388,-0.607600293,,,0,,,0
036006216217,,"Windsor, Parish Church",,51.4817568,-0.60669581,,,0,,,0
036006755755,,"York House",,51.479098765,-0.60624398,,,0,,,0
036006376376,,"Grove Road",,51.477178033,-0.608059309,,,0,,,0
036006374374,,"All Saints' Church",,51.475044704,-0.611666449,,,0,,,0
036006235235,,"King Edward VII Hospital",,51.473577288,-0.615325084,,,0,,,0
036006372373,,"Trevelyan School",,51.470994627,-0.618210867,,,0,,,0
036006758760,,"Stag Meadow",,51.470981994,-0.622487438,,,0,,,0
036006237237,,"Imperial Court",,51.471318478,-0.625875243,,,0,,,0
036006350351,,"Prince Albert PH",,51.470533276,-0.631010047,,,0,,,0
036006353353,,"St Leonards Hill",,51.468443157,-0.636845843,,,0,,,0
036006857857,,"Legoland Roundabout",,51.462111908,-0.646088999,,,0,,,0
036006858858,,"High Standing Hill",,51.455679781,-0.654440165,,,0,,,0
0380J328H871,,"Fernbank Corner",,51.411675709,-0.702594114,,,0,,,0
0380I906H920,,"The Royal Foresters Hotel",,51.412066783,-0.708694253,,,0,,,0
0380I377H934,,"The Brackens",,51.412392545,-0.716248644,,,0,,,0
0380H988H955,,"Allsmoor Lane",,51.412642428,-0.721835262,,,0,,,0
0380H620H967,,"Drovers Way",,51.412807862,-0.727122313,,,0,,,0
0380H173G161,,"Bullbrook Ethyl Labs",,51.414621404,-0.73349985,,,0,,,0
0380G863G278,,"Bay Road",,51.415721229,-0.737927391,,,0,,,0
0380G261G356,,"The Ring - Parish Church",,51.416515261,-0.746562686,,,0,,,0
036006873876,,"Winkfield Road",,51.411901026,-0.668954588,,,0,,,0
036006640641,,"Ascot High Street",,51.410815122,-0.67629063,,,0,,,0
036006650651,,"Heatherwood Hospital - east",,51.411072628,-0.686391654,,,0,,,0
036006003015,,"Heatherwood Hospital Entrance",,51.407645979,-0.686726927,,,0,,,0
0380L786D978,,"Winkfield, The Squirrel",,51.448197698,-0.666187055,,,0,,,0
0380L402D689,,"Crouch Lane",,51.44566255,-0.671786637,,,0,,,0
0380L059D416,,"Chilston Manor",,51.443264302,-0.676791685,,,0,,,0
0380K790E947,,"Plaistow Green",,51.439091986,-0.680782569,,,0,,,0
0380L018E661,,"Primary School",,51.436484141,-0.677577448,,,0,,,0
0380L326E568,,"Fleur De Lis",,51.435598101,-0.673171914,,,0,,,0
0380L255E293,,"The Old Hatchet",,51.433137635,-0.674264591,,,0,,,0
0380K996F958,,"Cranbourne Corner",,51.430168321,-0.678076247,,,0,,,0
0380K937F733,,"Brookside, Old Post Office",,51.428155319,-0.678983012,,,0,,,0
0380K804F379,,"The Rough",,51.42499468,-0.680987132,,,0,,,0
0380K651F158,,"Beechwood Close",,51.423033282,-0.683287307,,,0,,,0
0380K453F061,,"Royal Hunt Public House",,51.422192785,-0.686116049,,,0,,,0
0380K022G834,,"Ascot Heath",,51.420221517,-0.692371163,,,0,,,0
0380J748G476,,"The Gold Cup PH",,51.417047238,-0.696402093,,,0,,,0
0380J610G231,,"Goaters Road",,51.414866912,-0.698448572,,,0,,,0
030059120001,,"Newbury Wharf",,51.401260128,-1.320910216,,,0,,,0
030058420001,,"Park Way",,51.403715405,-1.32255587,,,0,,,0
030058430001,,"Park Way, London Road",,51.40564913,-1.322642323,,,0,,,0
030053010001,,"Hawthorn Road",,51.406689499,-1.319075829,,,0,,,0
030055240002,,"Shaw Road foot",,51.407587161,-1.315726963,,,0,,,0
030051390001,,"Coachmans Court",,51.409019334,-1.314612883,,,0,,,0
030058130001,,"Mountbatten Close",,51.409959203,-1.310817404,,,0,,,0
030051650002,,"Cromwell Road",,51.409731742,-1.308836658,,,0,,,0
030057130002,,"Stoney Lane",,51.409017723,-1.303657042,,,0,,,0
030051630001,,"Cresswell Road",,51.407971528,-1.300107319,,,0,,,0
030050550002,,"Birchwood Road",,51.406680329,-1.299206892,,,0,,,0
030052350002,,"Fir Tree Primary School",,51.406503097,-1.295140911,,,0,,,0
030057870001,,"West Berkshire Community Hospital",,51.40586115,-1.291570954,,,0,,,0
030055360001,,"Southdown Road",,51.405064677,-1.287744717,,,0,,,0
030057370001,,"Garden Centre, Pound Lane",,51.405799565,-1.281450651,,,0,,,0
030050690002,,"Bourne Road",,51.405530167,-1.274209013,,,0,,,0
030054380002,,"Matthews Close",,51.404925494,-1.268065431,,,0,,,0
030052670002,,"Green Lane",,51.403756336,-1.262290498,,,0,,,0
030055890001,,"Thatcham, Broadway",,51.403068513,-1.257313107,,,0,,,0
030052330002,,"Ferndale Court",,51.40169895,-1.25545209,,,0,,,0
030055670002,,"London Road Chapel",,51.403774684,-1.249596046,,,0,,,0
030055900002,,"Thatcham Cemetery",,51.40371363,-1.24568673,,,0,,,0
030058170001,,"Hurford Drive",,51.401681038,-1.241436251,,,0,,,0
030058190001,,"Cropper Close, Falmouth Way",,51.4003578,-1.23843936,,,0,,,0
030055330002,,"Siege Cross Roundabout",,51.401496657,-1.235200347,,,0,,,0
030051450002,,"Colthrop Lane",,51.399153301,-1.227505807,,,0,,,0
030056040002,,"West Berkshire Crematorium",,51.397852367,-1.221145509,,,0,,,0
030050500002,,"Berkshire Arms",,51.397792715,-1.21355688,,,0,,,0
030054000002,,"Coach and Horses",,51.396975069,-1.206973198,,,0,,,0
030054010002,,"Midgham Kennels",,51.395946598,-1.198539208,,,0,,,0
030054020002,,"South Lodge",,51.395828712,-1.193151122,,,0,,,0
030053090002,,"Highcroft Kennels",,51.396785082,-1.187111585,,,0,,,0
030056930002,,"The Angel, Woolhampton",,51.397409594,-1.17738354,,,0,,,0
030053140002,,"Hillfoot Cottages",,51.395993127,-1.165263083,,,0,,,0
030055030002,,"The Sun Garage",,51.397159296,-1.158586625,,,0,,,0
030051610002,,"Cods Hill",,51.399144454,-1.15455402,,,0,,,0
030050070002,,"Aldermaston Station",,51.402699541,-1.138948125,,,0,,,0
030058440001,,"Padworth Lane",,51.404666427,-1.133750019,,,0,,,0
030054530002,,"Collins Caravan Centre",,51.406473683,-1.130092849,,,0,,,0
030050480002,,"Beenham Turn",,51.410242171,-1.126116354,,,0,,,0
030050180002,,"Lower Padworth, Avon Way",,51.412644065,-1.123116973,,,0,,,0
030056820002,,"Winning Hand",,51.41741236,-1.11747487,,,0,,,0
030056480002,,"Victoria Lodge",,51.419395427,-1.113352435,,,0,,,0
030055770002,,"Spring Inn",,51.422333357,-1.105931961,,,0,,,0
030054040002,,"Milehouse Cottages",,51.427809438,-1.098892112,,,0,,,0
030056800002,,"Wigmore Lane",,51.431049381,-1.093434072,,,0,,,0
030056800003,,"Wigmore Lane East",,51.432761926,-1.090479949,,,0,,,0
030056210002,,"The Green, Theale",,51.433602057,-1.088665062,,,0,,,0
030056170001,,"Theale Green School",,51.435945509,-1.083611974,,,0,,,0
030056180002,,"The Crown, Theale",,51.436940235,-1.077448945,,,0,,,0
030050810001,,"Brewery Court",,51.437948168,-1.074134013,,,0,,,0
030052890001,,"Arlington Business Park",,51.436146731,-1.068070556,,,0,,,0
030055200001,,"Calcot (Sainsbury's)",,51.441861617,-1.060817685,,,0,,,0
030053940002,,"Mayfield Avenue",,51.441066961,-1.057035539,,,0,,,0
030051040002,,"Calcot Priory",,51.440998628,-1.049684668,,,0,,,0
030054120001,,"Langley Hill",,51.442547477,-1.044429499,,,0,,,0
030052590001,,"Golf Club West Gate",,51.442737874,-1.038022609,,,0,,,0
030051050002,,"Calcot, Mill Lane",,51.443308243,-1.03193857,,,0,,,0
030052690002,,"Greenwood Road",,51.443929301,-1.027666308,,,0,,,0
039026390001,,Horncastle,,51.444352408,-1.024477333,,,0,,,0
039025140002,,"Bath Road, Burghfield Road",,51.444400399,-1.018375325,,,0,,,0
039026380001,,"Honey End Lane",,51.445166376,-1.014286715,,,0,,,0
039025620001,,"Circuit Lane (Bath Road)",,51.445899142,-1.007349543,,,0,,,0
039026540001,,"Liebenrood Road",,51.447050561,-1.001050556,,,0,,,0
039026920001,,"Parkside Road (Bath Road)",,51.447618628,-0.998073791,,,0,,,0
039027230003,,"Southcote Road (Bath Road)",,51.448538455,-0.994182633,,,0,,,0
039025200001,,"Berkeley Avenue",,51.449013393,-0.991898486,,,0,,,0
039025890001,,"Downshire Square",,51.449664799,-0.988185706,,,0,,,0
039026550001,,"Lima Court",,51.4505256,-0.984784779,,,0,,,0
039027180005,,"Russell Street",,51.452212019,-0.983279437,,,0,,,0
039027710001,,"Waylen Street",,51.455064133,-0.981402634,,,0,,,0
039025530002,,Cheapside,,51.455430057,-0.975925292,,,0,,,0
039028140006,,"Station Road",,51.457123675,-0.972173963,,,0,,,0
039028150001,,"Blagrave Street",,51.457359113,-0.970311948,,,0,,,0
039028170004,,"Friar Street",,51.456716939,-0.972960321,,,0,,,0
039027320007,,"St Mary's Butts",,51.454008986,-0.973827039,,,0,,,0
039025430002,,"Castle Street",,51.452496826,-0.976739278,,,0,,,0
039027180001,,"Russell Street (Bath Road)",,51.450773849,-0.983340158,,,0,,,0
039025890002,,"Downshire Square",,51.449590395,-0.987899535,,,0,,,0
039025200002,,"Berkeley Avenue",,51.448879407,-0.99200217,,,0,,,0
039027230002,,"Southcote Road (Bath Road)",,51.447925663,-0.996124389,,,0,,,0
039026920002,,"Parkside Road (Bath Road)",,51.447414804,-0.998423613,,,0,,,0
039026540002,,"Liebenrood Road",,51.44682037,-1.001472885,,,0,,,0
039025620002,,"Circuit Lane (Bath Road)",,51.445735997,-1.008259622,,,0,,,0
039026380002,,"Honey End Lane",,51.444780355,-1.015431774,,,0,,,0
039025140003,,"Bath Road, Burghfield Road",,51.444112294,-1.020482299,,,0,,,0
030052690001,,"Greenwood Road",,51.443793255,-1.027525308,,,0,,,0
030051050001,,"Calcot, Mill Lane",,51.442805787,-1.034251368,,,0,,,0
030052590002,,"Golf Club West Gate",,51.442469318,-1.039265661,,,0,,,0
030054120002,,"Langley Hill",,51.442409177,-1.042907206,,,0,,,0
030051040001,,"Calcot Priory",,51.441610677,-1.047542512,,,0,,,0
030055190001,,"Sandown Avenue",,51.440732625,-1.051258472,,,0,,,0
030053940001,,"Mayfield Avenue",,51.440943987,-1.057397771,,,0,,,0
030050810002,,"Brewery Court",,51.437952046,-1.073486517,,,0,,,0
030056180001,,"The Crown, Theale",,51.436805719,-1.077494814,,,0,,,0
030056190001,,"Theale Primary School",,51.436203296,-1.08208185,,,0,,,0
030056170002,,"Theale Green School",,51.435511271,-1.084426292,,,0,,,0
030056210001,,"The Green, Theale",,51.433688048,-1.088159853,,,0,,,0
030056800001,,"Wigmore Lane",,51.430499641,-1.094437492,,,0,,,0
030054040001,,"Milehouse Cottages",,51.427139241,-1.099437486,,,0,,,0
030055770001,,"Spring Inn",,51.421862998,-1.106746526,,,0,,,0
030056480001,,"Victoria Lodge",,51.418692675,-1.114358314,,,0,,,0
030056820001,,"Winning Hand",,51.416974205,-1.117799675,,,0,,,0
030050180001,,"Lower Padworth, Avon Way",,51.413156477,-1.121899319,,,0,,,0
030050480001,,"Beenham Turn",,51.408422104,-1.127295364,,,0,,,0
030054530001,,"Collins Caravan Centre",,51.405547297,-1.131274944,,,0,,,0
030050070001,,"Aldermaston Station",,51.402123487,-1.140094623,,,0,,,0
030051610001,,"Cods Hill",,51.3986103,-1.15529697,,,0,,,0
030055030001,,"The Sun Garage",,51.396232514,-1.159753533,,,0,,,0
030053140001,,"Hillfoot Cottages",,51.395874724,-1.166314522,,,0,,,0
030056930001,,"The Angel, Woolhampton",,51.397181195,-1.176870166,,,0,,,0
030053090001,,"Highcroft Kennels",,51.396429836,-1.187750332,,,0,,,0
030054020001,,"South Lodge",,51.395692076,-1.194202804,,,0,,,0
030054010001,,"Midgham Kennels",,51.395875988,-1.200049684,,,0,,,0
030054000001,,"Coach and Horses",,51.397348875,-1.209065368,,,0,,,0
030050500001,,"Berkshire Arms",,51.397652332,-1.214076761,,,0,,,0
030056040001,,"West Berkshire Crematorium",,51.397674461,-1.221436015,,,0,,,0
030051450001,,"Colthrop Lane",,51.399516995,-1.229483412,,,0,,,0
030055330001,,"Siege Cross Roundabout",,51.401343906,-1.235217269,,,0,,,0
030052290001,,"Pipers Way Top",,51.400852221,-1.237036751,,,0,,,0
030058200001,,"Cropper Close, Falmouth Way",,51.400241293,-1.238498794,,,0,,,0
030058180001,,"Hurford Drive",,51.401646563,-1.241666829,,,0,,,0
030055900001,,"Thatcham Cemetery",,51.403624432,-1.247197691,,,0,,,0
030055670001,,"London Road Chapel",,51.403687259,-1.249985632,,,0,,,0
030052330001,,"Ferndale Court",,51.401657828,-1.256056528,,,0,,,0
030055890002,,"Thatcham, Broadway",,51.403079779,-1.257672324,,,0,,,0
030052670001,,"Green Lane",,51.403726519,-1.263268555,,,0,,,0
030054380001,,"Matthews Close",,51.404606773,-1.267423579,,,0,,,0
030050690001,,"Bourne Road",,51.405304139,-1.275463357,,,0,,,0
030057370002,,"Garden Centre, Pound Lane",,51.405832612,-1.282442132,,,0,,,0
030052350001,,"Fir Tree Primary School",,51.406600009,-1.29480875,,,0,,,0
030050550001,,"Birchwood Road",,51.406512904,-1.298274946,,,0,,,0
030051630002,,"Cresswell Road",,51.408295545,-1.300159884,,,0,,,0
030057130001,,"Stoney Lane",,51.40892602,-1.303356501,,,0,,,0
030051650001,,"Cromwell Road",,51.409724954,-1.309210589,,,0,,,0
030058130002,,"Mountbatten Close",,51.409875205,-1.311825129,,,0,,,0
030051390002,,"Coachmans Court",,51.408435089,-1.31465037,,,0,,,0
030055240001,,"Shaw Road foot",,51.407389695,-1.315787418,,,0,,,0
030053010002,,"Hawthorn Road",,51.406555552,-1.319235965,,,0,,,0
030058430002,,"Park Way, London Road",,51.405288577,-1.322489505,,,0,,,0
030058420002,,"Park Way",,51.403651803,-1.322441801,,,0,,,0
030059120008,,"Newbury Wharf",,51.401531356,-1.321164958,,,0,,,0
030059120007,,"Newbury Wharf",,51.400846459,-1.320901965,,,0,,,0
039025140001,,"Bath Road, Burghfield Road",,51.443552346,-1.019112946,,,0,,,0
039025940002,,"Dwyer Road",,51.441309565,-1.018657395,,,0,,,0
030050980001,,"Burghfield Road Railway Bridge",,51.435615769,-1.019498696,,,0,,,0
030056020001,,"Cunning Man",,51.431062549,-1.022329279,,,0,,,0
030058640001,,"Burghfield Golf Course",,51.427606837,-1.027394205,,,0,,,0
030050110002,,"Amners Farm Road",,51.420127047,-1.029738923,,,0,,,0
030056070001,,"The Mearings",,51.415978802,-1.031552349,,,0,,,0
030050970001,,"Church Lane",,51.412741165,-1.0347554,,,0,,,0
030052930001,,"Hatch Gate PH",,51.41137078,-1.041987995,,,0,,,0
030055750002,,"Clayhill Road Turn",,51.411219138,-1.04876352,,,0,,,0
030052100001,,"Elm Drive",,51.407217549,-1.054295572,,,0,,,0
030051260001,,"Chestnut Drive",,51.405401694,-1.056590184,,,0,,,0
030055980001,,"Burghfield, The Close",,51.401690063,-1.062445553,,,0,,,0
030054480001,,"Clayhill Road Shops",,51.400646252,-1.065730092,,,0,,,0
030057990001,,"Omer's Rise",,51.399433697,-1.06929103,,,0,,,0
030052620002,,"Goodwood Close",,51.397744723,-1.068347838,,,0,,,0
030054960002,,"Burghfield Village Hall",,51.395753677,-1.064478598,,,0,,,0
030057120001,,"Hollybush Lane Junction",,51.393183218,-1.066888185,,,0,,,0
030056290001,,"Three Firs Way",,51.390505507,-1.069385909,,,0,,,0
030058210002,,"Longmoor Lane",,51.383404774,-1.072015896,,,0,,,0
030051440001,,"College Piece",,51.379072948,-1.07343975,,,0,,,0
030055650001,,"Stephen's Close",,51.377463091,-1.06999517,,,0,,,0
030052560001,,"Mortimer, Glenapp Grange",,51.375888794,-1.067642044,,,0,,,0
030055510003,,"St John's Church",,51.376800299,-1.062422362,,,0,,,0
030055950001,,"The Bevers",,51.377406194,-1.066231892,,,0,,,0
030051440002,,"Stephen's Road",,51.378299896,-1.071199525,,,0,,,0
030051440003,,"College Piece",,51.379750952,-1.075035368,,,0,,,0
030058210001,,"Longmoor Lane",,51.383819018,-1.07209374,,,0,,,0
030056290002,,"Three Firs Way",,51.390729583,-1.069295131,,,0,,,0
030057120002,,"Hollybush Lane Junction",,51.393933494,-1.066254876,,,0,,,0
030054960001,,"Burghfield Village Hall",,51.395754939,-1.064636684,,,0,,,0
030052620001,,"Goodwood Close",,51.396838709,-1.067489415,,,0,,,0
030057990002,,"Omer's Rise",,51.399806273,-1.068650967,,,0,,,0
030054480002,,"Clayhill Road Shops",,51.400875878,-1.0652079,,,0,,,0
030055980002,,"Burghfield, The Close",,51.401920134,-1.061980826,,,0,,,0
030051260002,,"Chestnut Drive",,51.405367121,-1.056763417,,,0,,,0
030052100002,,"Elm Drive",,51.407806159,-1.053693951,,,0,,,0
030055750001,,"Clayhill Road Turn",,51.411290711,-1.048718899,,,0,,,0
030052930002,,"Hatch Gate PH",,51.411575326,-1.041710524,,,0,,,0
030050970002,,"Church Lane",,51.412884181,-1.034651734,,,0,,,0
030056070002,,"The Mearings",,51.416615688,-1.031366329,,,0,,,0
030050110001,,"Amners Farm Road",,51.42051589,-1.030003942,,,0,,,0
030058640002,,"Burghfield Golf Course",,51.42739441,-1.02780146,,,0,,,0
030056020002,,"Cunning Man",,51.431178942,-1.022269255,,,0,,,0
030050980002,,"Burghfield Road Railway Bridge",,51.435661562,-1.01959842,,,0,,,0
039025940001,,"Dwyer Road",,51.44133798,-1.018829444,,,0,,,0
030055110001,,"Roselawn Hotel",,51.407588005,-1.043432894,,,0,,,0
030053130001,,"Highwoods lodge",,51.403635709,-1.048360144,,,0,,,0
030053860001,,"Burghfield, Mans Hill",,51.400459042,-1.053601162,,,0,,,0
030053190001,,Holmdene,,51.399484241,-1.055375023,,,0,,,0
030058010001,,"Coltsfoot Close",,51.400661835,-1.058685853,,,0,,,0
030058010002,,"Coltsfoot Close",,51.401400021,-1.058400011,,,0,,,0
030053190002,,Holmdene,,51.399520898,-1.055460518,,,0,,,0
030053860002,,"Burghfield, Mans Hill",,51.400655206,-1.053395859,,,0,,,0
030053130002,,"Highwoods lodge",,51.404259549,-1.047671504,,,0,,,0
030055110002,,"Roselawn Hotel",,51.407921586,-1.043540956,,,0,,,0
030054950002,,"Recreation Road",,51.395773879,-1.063630131,,,0,,,0
030050600002,,"Blands Court",,51.397205949,-1.060553554,,,0,,,0
039028140001,,"Station Road",,51.458131825,-0.972295259,,,0,,,0
039026630001,,"Market Place",,51.456002259,-0.969392545,,,0,,,0
039025920003,,"Kings Road Duke Street",,51.454939965,-0.967889995,,,0,,,0
039026410003,,"Huntley and Palmers",,51.454951858,-0.963457703,,,0,,,0
039025980003,,"Eldon Road",,51.453254264,-0.958654542,,,0,,,0
039025760002,,"RBH Main Entrance",,51.450419578,-0.957328986,,,0,,,0
039027040001,,"RBH South Wing",,51.448162082,-0.956257947,,,0,,,0
039027040004,,"Redlane Court",,51.447054769,-0.956110508,,,0,,,0
039025040001,,"Allcroft Road",,51.445831324,-0.957059336,,,0,,,0
039025570003,,"Christchurch Green",,51.442405278,-0.954015045,,,0,,,0
039025500002,,"Chancellors Way",,51.440209518,-0.951806298,,,0,,,0
039027730002,,"Wellington Avenue",,51.438679006,-0.950589622,,,0,,,0
039026530002,,"Leighton Park Copse",,51.436475774,-0.949561097,,,0,,,0
039025790002,,"Cressingham Road Church",,51.434236444,-0.948519112,,,0,,,0
039025170002,,"Beech Road",,51.430844776,-0.946324136,,,0,,,0
039027480002,,"The Maidens",,51.428431564,-0.945948107,,,0,,,0
035077020001,,"Halls Lane",,51.424036332,-0.946149886,,,0,,,0
035077040001,,"Weather Centre",,51.42058562,-0.947394153,,,0,,,0
035077060001,,"Ducketts Farm",,51.417377109,-0.948575149,,,0,,,0
035077080001,,"Brookers Hill",,51.412137982,-0.949931908,,,0,,,0
035077100001,,"Church Lane",,51.408549455,-0.947843025,,,0,,,0
035077120001,,"School Green",,51.406132961,-0.946101326,,,0,,,0
035077140001,,"Magpie and Parrot",,51.404889525,-0.937848871,,,0,,,0
035077160001,,"Hall Farm",,51.403974589,-0.931170608,,,0,,,0
035077180001,,"Arborfield. Church Lane",,51.401295918,-0.919502479,,,0,,,0
035077200001,,"Walden Avenue",,51.400540485,-0.915595777,,,0,,,0
035077220001,,"The Swan",,51.396728887,-0.906026383,,,0,,,0
035077240001,,"British Legion",,51.393319401,-0.90490034,,,0,,,0
035077260001,,"Ducks Nest Farm",,51.390599041,-0.903427432,,,0,,,0
035077280001,,"Rickman Close",,51.389037831,-0.901869467,,,0,,,0
035077300001,,"Hill Road",,51.388119245,-0.898844677,,,0,,,0
035077320001,,"Biggs Lane",,51.386974013,-0.896558394,,,0,,,0
035077340002,,"Sheerlands Road",,51.383752412,-0.899194044,,,0,,,0
035088960001,,"Rowcroft Road",,51.381389528,-0.899408496,,,0,,,0
035059590002,,"Arborfield Centre",,51.378303147,-0.897269753,,,0,,,0
035059580002,,"Arborfield Green, Harvest Path",,51.376831627,-0.897606833,,,0,,,0
035059570002,,"Marino Way",,51.374576493,-0.893034705,,,0,,,0
035077360001,,"Robinson Crusoe",,51.374419491,-0.885955413,,,0,,,0
035077380001,,"Coleshill Farm",,51.374694194,-0.881753468,,,0,,,0
035077400001,,"California Country Park",,51.375836337,-0.869584891,,,0,,,0
035077420001,,"Manor Park Drive",,51.376342603,-0.864285027,,,0,,,0
035077440001,,"California Crossroads Petrol Station",,51.376894454,-0.858150561,,,0,,,0
035076340002,,"Ratepayers Hall",,51.377970776,-0.855106412,,,0,,,0
035077480001,,"Barkham Ride East",,51.380079602,-0.854665842,,,0,,,0
035077500001,,"Barkham Stores",,51.382036901,-0.85897102,,,0,,,0
035077520001,,"St James Road",,51.384362691,-0.864201513,,,0,,,0
035077580001,,"The Bull",,51.396331506,-0.880133625,,,0,,,0
035077600001,,"Bearwood Road",,51.398602342,-0.874069478,,,0,,,0
035077620001,,"Lower Doles Hill",,51.399169265,-0.870375542,,,0,,,0
035077640001,,"Doles Farm",,51.401481031,-0.8658046,,,0,,,0
035077660001,,"Smalley Close",,51.403040341,-0.862473863,,,0,,,0
035077680001,,"Ye Olde Leathern Bottel",,51.404541331,-0.856858443,,,0,,,0
035077700001,,"Wheeler Close",,51.406846366,-0.851653832,,,0,,,0
035077740001,,"Molly Millars Lane",,51.408284727,-0.847951429,,,0,,,0
035076120002,,"Wokingham Hospital",,51.409262585,-0.844979314,,,0,,,0
035059890001,,"Station Interchange",,51.412201791,-0.843035967,,,0,,,0
035075380001,,"Shute End",,51.413036539,-0.840153388,,,0,,,0
035075400001,,"Broad Street",,51.411097232,-0.835011687,,,0,,,0
039027320003,,"St Mary's Butts",,51.454755235,-0.974846565,,,0,,,0
039026100005,,"Friar Street",,51.456776926,-0.973649842,,,0,,,0
035075400003,,"Broad Street",,51.411082967,-0.835385899,,,0,,,0
035076100001,,"Wokingham Hospital",,51.409730258,-0.84407607,,,0,,,0
035077740002,,"Molly Millars Lane",,51.408203395,-0.847910339,,,0,,,0
035077720002,,"Woosehill Lane",,51.407470692,-0.850214804,,,0,,,0
035077700002,,"Wheeler Close",,51.406579769,-0.851976812,,,0,,,0
035077680002,,"Ye Olde Leathern Bottel",,51.404416454,-0.856962193,,,0,,,0
035077660002,,"Smalley Close",,51.402818384,-0.862766894,,,0,,,0
035077640002,,"Doles Farm",,51.401025023,-0.866331964,,,0,,,0
035077620002,,"Lower Doles Hill",,51.399036356,-0.870580066,,,0,,,0
035077600002,,"Bearwood Road",,51.398441904,-0.874217165,,,0,,,0
035077560002,,"Church Lane",,51.392731988,-0.877987923,,,0,,,0
035077520002,,"St James Road",,51.384130562,-0.863445629,,,0,,,0
035077500002,,"Barkham Stores",,51.381851087,-0.858357744,,,0,,,0
035077480002,,"Barkham Ride - East",,51.380113737,-0.854478191,,,0,,,0
035076340001,,"Ratepayers Hall",,51.3788619,-0.854279535,,,0,,,0
035077440002,,"California Crossroads Petrol Station",,51.376889455,-0.857711452,,,0,,,0
035077420002,,"Manor Park Drive",,51.376364912,-0.862876417,,,0,,,0
035077400002,,"California Country Park",,51.375822774,-0.869111089,,,0,,,0
035077380002,,"Coleshill Farm",,51.374596949,-0.881928246,,,0,,,0
035077360002,,"Robinson Crusoe",,51.374425497,-0.886587428,,,0,,,0
035059570001,,"Marino Way",,51.37511897,-0.894300332,,,0,,,0
035059580001,,"Arborfield Green, Harvest Path",,51.376797694,-0.897823168,,,0,,,0
035059590001,,"Arborfield Centre",,51.378279015,-0.897572071,,,0,,,0
035088960002,,"Rowcroft Road",,51.381418791,-0.899652075,,,0,,,0
035077340001,,"Sheerlands Road",,51.383811611,-0.899752775,,,0,,,0
035077320002,,"Biggs Lane",,51.386829002,-0.896475654,,,0,,,0
035077300002,,"Hill Road",,51.388639365,-0.899651384,,,0,,,0
035077280002,,"Rickman Close",,51.388868906,-0.902074716,,,0,,,0
035077260002,,"Ducks Nest Farm",,51.390826345,-0.903695075,,,0,,,0
035077240002,,"British Legion",,51.393465255,-0.905112457,,,0,,,0
035077220002,,"The Swan",,51.395389995,-0.905710035,,,0,,,0
035077200002,,"Walden Avenue",,51.400563915,-0.916184617,,,0,,,0
035077180002,,"Church Lane",,51.40151434,-0.920762399,,,0,,,0
035077160002,,"Hall Farm",,51.404008241,-0.931903026,,,0,,,0
035077140002,,"Magpie and Parrot",,51.404714291,-0.938526049,,,0,,,0
035077120002,,"School Green",,51.406241818,-0.946437551,,,0,,,0
035077100002,,"Church Lane",,51.408831759,-0.948239131,,,0,,,0
035077080002,,"Brookers Hill",,51.41242721,-0.950097833,,,0,,,0
035077060002,,"Ducketts Farm",,51.417915611,-0.948462131,,,0,,,0
035077040002,,"Weather Centre",,51.420954213,-0.947385687,,,0,,,0
035077020002,,"Halls Lane",,51.423607135,-0.946418644,,,0,,,0
039025880001,,"Downham Court",,51.426946581,-0.946802139,,,0,,,0
039027480001,,"The Maidens",,51.429107886,-0.946162698,,,0,,,0
039025170001,,"Beech Road",,51.431008406,-0.946521762,,,0,,,0
039025790001,,"Cressingham Road Church",,51.434183664,-0.948649797,,,0,,,0
039026530001,,"Leighton Park Copse",,51.436756914,-0.949827999,,,0,,,0
039027730001,,"Wellington Avenue",,51.439538852,-0.951217366,,,0,,,0
039025500001,,"Chancellor's Way",,51.440729406,-0.952628905,,,0,,,0
039025570002,,"Christchurch Green",,51.443086459,-0.95477648,,,0,,,0
039025040002,,"Allcroft Road",,51.446032048,-0.957385727,,,0,,,0
039027040003,,"Redlane Court",,51.44709265,-0.956325495,,,0,,,0
039027040002,,"RBH South Wing",,51.44763925,-0.956111573,,,0,,,0
039025760003,,"RBH Main Entrance",,51.449734543,-0.957143115,,,0,,,0
039028210001,,"UoR London Road",,51.45092157,-0.963411951,,,0,,,0
039025810003,,"London Street Top",,51.450931609,-0.967434359,,,0,,,0
039026580001,,"London Street Foot",,51.452702402,-0.968387452,,,0,,,0
039025920001,,"Duke Street",,51.45440545,-0.968795234,,,0,,,0
039026690003,,"Minster Street",,51.454629511,-0.971783803,,,0,,,0
039027320005,,"St Mary's Butts",,51.455045308,-0.975113526,,,0,,,0
039026100006,,"Friar Street",,51.456803941,-0.972627328,,,0,,,0
039028150002,,"Reading Station",,51.457575886,-0.970422218,,,0,,,0
039025920002,,"Kings Road",,51.454989969,-0.968309993,,,0,,,0
039026410004,,"Huntley and Palmers",,51.455071306,-0.961713502,,,0,,,0
039025980002,,"Eldon Road",,51.453853776,-0.957250766,,,0,,,0
039027450002,,"Reading College",,51.453451346,-0.953460437,,,0,,,0
039025480002,,"Cemetery Junction",,51.453144749,-0.950344396,,,0,,,0
039026240002,,"Hamilton Road",,51.452357146,-0.945742721,,,0,,,0
039025690002,,"College Road",,51.451488163,-0.942107311,,,0,,,0
039026890002,,"Palmer Park Avenue",,51.449338189,-0.938026843,,,0,,,0
039027350002,,"St Peter's Road",,51.447329225,-0.935627118,,,0,,,0
039026660002,,"Melrose Avenue",,51.445267582,-0.933372724,,,0,,,0
039027540003,,"Three Tuns",,51.442469634,-0.931236437,,,0,,,0
035075020001,,"Mays Lane",,51.441186607,-0.925640592,,,0,,,0
035075040001,,"Stanton Close",,51.440476842,-0.921786874,,,0,,,0
035075060001,,"Earley Station",,51.439670678,-0.917244941,,,0,,,0
035075080001,,"Henley Wood Road",,51.439066057,-0.914093974,,,0,,,0
035075100001,,"Meadow Road",,51.438380905,-0.909060263,,,0,,,0
035075120001,,"The George",,51.438378181,-0.902024917,,,0,,,0
035075140001,,"Loddon Bridge Roundabout",,51.436345354,-0.895254345,,,0,,,0
035059970001,,"Cavendish Gardens",,51.435502737,-0.891721214,,,0,,,0
035075160001,,"Drome Path",,51.434070911,-0.888648478,,,0,,,0
035075180001,,"Bearwood Path",,51.433162767,-0.886757209,,,0,,,0
035075200001,,"Arbor Lane",,51.432318206,-0.884936394,,,0,,,0
035075220001,,"Hunters Court",,51.429848521,-0.879602245,,,0,,,0
035075240001,,"Winnersh Crossroads",,51.42804049,-0.875777128,,,0,,,0
035075260001,,"Woodward Close",,51.425910962,-0.871868028,,,0,,,0
035075280001,,"Sadlers Lane",,51.423564937,-0.86576149,,,0,,,0
035075300001,,"Simons Lane",,51.421527436,-0.860576835,,,0,,,0
035075320001,,"Rifle Volunteer",,51.418891044,-0.853940704,,,0,,,0
035075340001,,"Oxford Road",,51.416364278,-0.847518282,,,0,,,0
035075360001,,"Holt Lane",,51.414566382,-0.843005047,,,0,,,0
035075420001,,"Seaford Road",,51.412236657,-0.824845383,,,0,,,0
035075440001,,"Three Frogs",,51.410571319,-0.816620316,,,0,,,0
035075460001,,"Plough Lane",,51.411776468,-0.808651948,,,0,,,0
035075480001,,"Keephatch Gardens",,51.412079969,-0.801789929,,,0,,,0
0380D737H554,,"Peacock Farm",,51.409931075,-0.781337552,,,0,,,0
0380E338H293,,"Southern Industrial Area",,51.407251721,-0.774464333,,,0,,,0
0380E513I945,,Wordsworth,,51.404097034,-0.77203272,,,0,,,0
0380E314I854,,Wheatley,,51.403308913,-0.774914745,,,0,,,0
0380E080I630,,Viking,,51.401330352,-0.778331551,,,0,,,0
0380E293I261,,Vandyke,,51.397981257,-0.775358926,,,0,,,0
0380E583I345,,"Great Hollands Square",,51.398530348,-0.771118019,,,0,,,0
0380E858I073,,"East Lodge",,51.396206108,-0.767284866,,,0,,,0
0380F458I115,,"Babbage Way",,51.39649267,-0.758652551,,,0,,,0
0380F840I262,,"Haversham Drive",,51.397755858,-0.753127204,,,0,,,0
0380G063I518,,"Harcourt Road",,51.40002303,-0.749859834,,,0,,,0
0380G225I961,,Glebewood,,51.403980509,-0.747422915,,,0,,,0
0380G155H391,,"Horse and Groom",,51.407856724,-0.748323475,,,0,,,0
0380F981G045,,"Bracknell Bus Station",,51.413762512,-0.750664302,,,0,,,0
0380F981G030,,"Bracknell Bus Station",,51.413627671,-0.750667977,,,0,,,0
035075480002,,"Keephatch Gardens",,51.41181,-0.80249998,,,0,,,0
035075460002,,"Plough Lane",,51.411885881,-0.807915768,,,0,,,0
035075440002,,"Three Frogs",,51.410680794,-0.817667138,,,0,,,0
035075420002,,"Seaford Road",,51.412244293,-0.825607286,,,0,,,0
035075400002,,"Broad Street",,51.411046436,-0.835329312,,,0,,,0
035075380002,,"Shute End",,51.412518432,-0.839591325,,,0,,,0
035059890002,,"Station Interchange",,51.412328499,-0.843119045,,,0,,,0
035075360002,,"Holt Lane",,51.41491863,-0.844074659,,,0,,,0
035075340002,,"Oxford Road",,51.416846859,-0.849044877,,,0,,,0
035075320002,,"Rifle Volunteer",,51.419430288,-0.855753664,,,0,,,0
035075300002,,"Simons Lane",,51.421595115,-0.861064144,,,0,,,0
035075280002,,"Sadlers Lane",,51.424066373,-0.86740311,,,0,,,0
035075260002,,"Woodward Close",,51.426319295,-0.873018874,,,0,,,0
035075240002,,"Winnersh Crossroads",,51.428246399,-0.876620743,,,0,,,0
035075220002,,"Hunters Court",,51.4302552,-0.88075747,,,0,,,0
035075200002,,"Arbor Lane",,51.431192054,-0.882820423,,,0,,,0
035075180002,,"Bearwood Path",,51.432890339,-0.886476117,,,0,,,0
035075160002,,"Drome Path",,51.43402787,-0.888850926,,,0,,,0
035059970002,,"Cavendish Gardens",,51.435422236,-0.891766321,,,0,,,0
035075140002,,"Loddon Bridge Roundabout",,51.436138993,-0.895302482,,,0,,,0
035075120002,,"The George",,51.438180538,-0.902044043,,,0,,,0
035075100002,,"Meadow Road",,51.438227828,-0.908071186,,,0,,,0
035075080002,,"Henley Wood Road",,51.43910974,-0.914927417,,,0,,,0
035075060002,,"Earley Station",,51.439870646,-0.919427159,,,0,,,0
035075040002,,"Stanton Close",,51.440464284,-0.922377077,,,0,,,0
035075020002,,"Mays Lane",,51.441324717,-0.926975459,,,0,,,0
039027540001,,"Three Tuns",,51.443092092,-0.932444957,,,0,,,0
039026660001,,"Melrose Avenue",,51.445597239,-0.934026965,,,0,,,0
039027350001,,"St Peter's Road",,51.448166224,-0.93670133,,,0,,,0
039026890001,,"Palmer Park Avenue",,51.449596812,-0.938783558,,,0,,,0
039025690001,,"College Road",,51.451798193,-0.943582473,,,0,,,0
039026240001,,"Hamilton Road",,51.452513267,-0.947106341,,,0,,,0
039025480001,,"Cemetery Junction",,51.453062702,-0.951224184,,,0,,,0
039027450001,,"Reading College",,51.453544686,-0.955861777,,,0,,,0
039025980001,,"Eldon Road",,51.453869319,-0.960013706,,,0,,,0
039026410001,,"Huntley and Palmers",,51.454837785,-0.963776921,,,0,,,0
039025920004,,"Duke Street",,51.454866099,-0.968007664,,,0,,,0
039026690002,,"Minster Street",,51.454687899,-0.971264365,,,0,,,0
0380G192H356,,"Horse and Groom",,51.407536413,-0.74780024,,,0,,,0
0380G251I961,,Glebewood,,51.403976515,-0.747049229,,,0,,,0
0380G113I531,,"Harcourt Road",,51.400132227,-0.749138081,,,0,,,0
0380F848I243,,"Haversham Drive",,51.397583835,-0.753016882,,,0,,,0
0380F389I123,,"Babbage Way",,51.396575083,-0.759642153,,,0,,,0
0380E851I064,,"East Lodge",,51.39612626,-0.767387632,,,0,,,0
0380E283I250,,Vandyke,,51.397883873,-0.775505274,,,0,,,0
0380E076I616,,Viking,,51.401205097,-0.778392391,,,0,,,0
0380E309I865,,Wheatley,,51.403408549,-0.774983966,,,0,,,0
0380E496I965,,Wordsworth,,51.404279385,-0.772272242,,,0,,,0
0380E331H360,,"Southern Industrial Area",,51.407855072,-0.774548851,,,0,,,0
0380D816H562,,"Peacock Farm",,51.40974812,-0.781903176,,,0,,,0
0380C927G115,,"Coppid Beech Hill",,51.414851468,-0.79455146,,,0,,,0
0380D507G184,,"John Nike Way",,51.415385711,-0.786196865,,,0,,,0
0380D689G204,,"Beehive Road",,51.415538381,-0.783575606,,,0,,,0
0380E045G124,,"The Boulevard",,51.414765998,-0.7784768,,,0,,,0
0380E470G473,,"Farley Moor Lake",,51.417839519,-0.772282945,,,0,,,0
0380E738G355,,"Milbanke Way",,51.416738341,-0.768458414,,,0,,,0
0380E971G350,,"Easthampstead Road",,51.416658154,-0.76510987,,,0,,,0
0380F326G462,,"The Arena",,51.417611103,-0.759978946,,,0,,,0
0380F303G533,,"Arlington Square",,51.418113623,-0.7573336,,,0,,,0
0380F765G380,,"Skimped Hill Lane - Health Centre",,51.416807036,-0.753687556,,,0,,,0
0380F847G384,,"High Street",,51.416830454,-0.752507698,,,0,,,0
0380F494G502,,"Arlington Square",,51.417945108,-0.757553886,,,0,,,0
0380F308G451,,"The Arena",,51.417514956,-0.760240404,,,0,,,0
0380F047G368,,"Easthampstead Road",,51.416808451,-0.764012885,,,0,,,0
0380E733G343,,"Milbanke Way",,51.416631222,-0.768533195,,,0,,,0
0380E512G431,,"Farley Moor Lake",,51.417455633,-0.771689229,,,0,,,0
0380D903G099,,"The Boulevard",,51.414562513,-0.780524183,,,0,,,0
0380D721G172,,"Beehive Road",,51.41524594,-0.7831232,,,0,,,0
0380D485G162,,"John Nike Way",,51.415191214,-0.78651838,,,0,,,0
0380C930G095,,"Coppid Beech Hill",,51.414671232,-0.79451306,,,0,,,0
039028140004,,"Station Road",,51.457555703,-0.972221835,,,0,,,0
039026630003,,"Market Place",,51.455479697,-0.969274777,,,0,,,0
039026580002,,"London Street",,51.452817881,-0.96822654,,,0,,,0
039025810004,,"Crown Street, London Street",,51.451011633,-0.967331816,,,0,,,0
039027210001,,"Silver Street",,51.448466797,-0.966295539,,,0,,,0
039027800002,,"Whitley Street",,51.445645924,-0.965567795,,,0,,,0
039025560001,,"Christchurch Gardens",,51.443690506,-0.965093964,,,0,,,0
039025560004,,"Christchurch Court",,51.443212439,-0.962888892,,,0,,,0
039027670002,,"Warwick Road",,51.441364765,-0.96239837,,,0,,,0
039026760002,,"Newcastle Road",,51.439401235,-0.962025613,,,0,,,0
039025710001,,"Corbridge Road",,51.438282519,-0.959576358,,,0,,,0
039025420002,,"Canterbury Road",,51.436744498,-0.962574968,,,0,,,0
039025380002,,"Buckland Road Circle",,51.434470388,-0.962669628,,,0,,,0
039025700002,,"Community Centre",,51.431326609,-0.962035943,,,0,,,0
039025400002,,"Callington Road",,51.430073675,-0.961690327,,,0,,,0
039027390001,,"Stockton Road",,51.427997926,-0.960831173,,,0,,,0
039026260002,,"Hartland Road",,51.425660055,-0.959819827,,,0,,,0
039025280002,,"Brayford Road",,51.42369779,-0.959591097,,,0,,,0
039026140002,,"Gratton Road",,51.421581671,-0.959250822,,,0,,,0
039026820002,,"Northumberland Ave Terminus",,51.419616977,-0.958748943,,,0,,,0
039027820002,,"Woodside Way",,51.418941005,-0.959584027,,,0,,,0
039026010004,,"Engineers Court",,51.417067866,-0.964343378,,,0,,,0
039027320006,,"St Mary's Butts",,51.454783463,-0.974989857,,,0,,,0
039027760001,,"West Street",,51.456150018,-0.975995542,,,0,,,0
039026010001,,"Engineers Court",,51.417202686,-0.963319307,,,0,,,0
039026820001,,"Northumberland Ave Terminus",,51.419629159,-0.959108201,,,0,,,0
039026140001,,"Gratton Road",,51.422492606,-0.959560928,,,0,,,0
039025280001,,"Brayford Road",,51.423960161,-0.959772116,,,0,,,0
039026260001,,"Hartland Road",,51.42558042,-0.959965468,,,0,,,0
039027390002,,"Stockton Road",,51.427737724,-0.96089461,,,0,,,0
039025400001,,"Callington Road",,51.430273622,-0.961930336,,,0,,,0
039025700001,,"Community Centre",,51.431805121,-0.962255266,,,0,,,0
039025380001,,"Buckland Road Circle",,51.434749971,-0.962764,,,0,,,0
039025420001,,"Canterbury Road",,51.436979131,-0.962670362,,,0,,,0
039025710002,,"Corbridge Road",,51.43831102,-0.959748357,,,0,,,0
039026760001,,"Newcastle Road",,51.43930489,-0.962315548,,,0,,,0
039027670001,,"Warwick Road",,51.441554829,-0.962537947,,,0,,,0
039025560003,,"Christchurch Court",,51.443130932,-0.963840397,,,0,,,0
039027800001,,"Whitley Street",,51.445512596,-0.965743481,,,0,,,0
039027750001,,"West Hill",,51.44873119,-0.968750351,,,0,,,0
039025810002,,"Crown Street, Southampton Street",,51.450336975,-0.970369151,,,0,,,0
039025300001,,"Bridge Street",,51.453112292,-0.973084369,,,0,,,0
039025990002,,"Elgar Road",,51.440135649,-0.96678573,,,0,,,0
039026070001,,"Long Barn Lane",,51.436585071,-0.967944824,,,0,,,0
039025390003,,"Buckland Road junction",,51.433108052,-0.968267714,,,0,,,0
039027790001,,"Whitley Park School",,51.430673631,-0.968538309,,,0,,,0
039025410001,,"Callington Road",,51.429239386,-0.969045283,,,0,,,0
039025180002,,"Bennet Road",,51.42719997,-0.969959949,,,0,,,0
039027840002,,"Hartland Road",,51.424265937,-0.969962615,,,0,,,0
039026970002,,"Holiday Inn",,51.421111304,-0.969113077,,,0,,,0
039027260001,,"Spencer Road",,51.418938236,-0.967407451,,,0,,,0
039026010003,,"Engineers Court",,51.41639894,-0.964962468,,,0,,,0
039027260002,,"Spencer Road",,51.418468089,-0.967116041,,,0,,,0
039026970001,,"Holiday Inn",,51.421507375,-0.969161696,,,0,,,0
039027840001,,"Hartland Road",,51.425366648,-0.970383752,,,0,,,0
039025180001,,"Bennet Road",,51.426635013,-0.970441554,,,0,,,0
039025410002,,"Callington Road",,51.428604754,-0.969476705,,,0,,,0
039027790002,,"Whitley Park School",,51.430836591,-0.968664105,,,0,,,0
039025390002,,"Buckland Road Junction",,51.434244349,-0.968644929,,,0,,,0
039026070002,,"Long Barn Lane",,51.436981902,-0.968079752,,,0,,,0
039025990001,,"Elgar Road",,51.439862152,-0.967381797,,,0,,,0
039025560002,,"Christchurch Gardens",,51.443008403,-0.965238877,,,0,,,0
039027810001,,"Whitley Wood Community Centre",,51.415727345,-0.965279615,,,0,,,0
039026020001,,"Farmers Close",,51.414099978,-0.963903977,,,0,,,0
039027490001,,"The Maying",,51.415030947,-0.967883725,,,0,,,0
039027830002,,"Worton Grange",,51.420120165,-0.971954153,,,0,,,0
039028330001,,"Tesco Depot",,51.41757941,-0.977547724,,,0,,,0
039027830001,,"Worton Grange",,51.420149152,-0.972183607,,,0,,,0
039028080001,,"Rodwell Drive",,51.425350181,-0.956317362,,,0,,,0
039026360002,,"Holberton Road",,51.422659623,-0.95407746,,,0,,,0
035084500001,,"Wentworth Avenue",,51.420852087,-0.955067909,,,0,,,0
039028660001,,"Imperial Way",,51.418886077,-0.976842662,,,0,,,0
035080600001,,Costco,,51.419745493,-0.982604806,,,0,,,0
035080620001,,"Lime Square",,51.419549176,-0.987973406,,,0,,,0
039026190001,,"350 Brook Drive",,51.422248955,-0.990315616,,,0,,,0
039026180002,,"250 Brook Drive",,51.423739717,-0.988010311,,,0,,,0
039026150001,,"100 Brook Drive",,51.425497801,-0.984390065,,,0,,,0
039026160001,,"100 Longwater Ave",,51.427143464,-0.988568023,,,0,,,0
039026170001,,"300 Longwater Ave",,51.425484438,-0.994314774,,,0,,,0
039028670001,,"Green Park Station",,51.42663195,-1.001063958,,,0,,,0
039025790004,,"Cressingham Road Church",,51.433619354,-0.948892921,,,0,,,0
039025130001,,"Barnsdale Road",,51.43271451,-0.952279893,,,0,,,0
039025210001,,"Birdhill Avenue",,51.432886429,-0.95643339,,,0,,,0
039027380001,,"Staverton Road",,51.433234999,-0.959230656,,,0,,,0
039027820001,,"Woodside Way",,51.419732745,-0.95761018,,,0,,,0
039027740001,,"Wentworth Avenue",,51.420614608,-0.955662974,,,0,,,0
039026360001,,"Holberton Road",,51.423128774,-0.954253725,,,0,,,0
039028080002,,"Rodwell Drive",,51.425231902,-0.956161841,,,0,,,0
039027380002,,"Staverton Road",,51.433228359,-0.958482752,,,0,,,0
039025210002,,"Birdhill Avenue",,51.432775241,-0.955054912,,,0,,,0
039025130002,,"Barnsdale Road",,51.433084764,-0.951451444,,,0,,,0
039025790003,,"Cressingham Road Church",,51.433622448,-0.949238109,,,0,,,0
039026170002,,"300 Longwater Avenue",,51.425761037,-0.994064188,,,0,,,0
039026160002,,"100 Longwater Ave",,51.427319793,-0.988161385,,,0,,,0
039026150002,,"100 Brook Drive",,51.425186009,-0.984727787,,,0,,,0
039026180001,,"250 Brook Drive",,51.423444779,-0.98821818,,,0,,,0
039026190002,,"350 Brook Drive",,51.421855739,-0.990597538,,,0,,,0
035080620002,,"Lime Square",,51.419303478,-0.986469949,,,0,,,0
035080600002,,Costco,,51.420076257,-0.982381741,,,0,,,0
039026590008,,"Reading Stadium",,51.421950813,-0.979765721,,,0,,,0
039028610001,,"Reading Gate Retail Park",,51.42441299,-0.97958146,,,0,,,0
039025380004,,"Buckland Road Circle",,51.433644131,-0.964817436,,,0,,,0
039028060002,,"Hilton Hotel",,51.431143661,-0.977029263,,,0,,,0
039028060003,,"Central Piazza",,51.430805952,-0.975425695,,,0,,,0
039028100001,,"Manor Farm Road",,51.430459067,-0.971750948,,,0,,,0
039025390001,,"Buckland Road Junction",,51.433676963,-0.967521225,,,0,,,0
039025380003,,"Buckland Road Circle",,51.433727427,-0.964067491,,,0,,,0
039027320004,,"St Mary's Butts",,51.45490945,-0.975001428,,,0,,,0
039025810001,,"Crown Street, Pell Street",,51.449644106,-0.970312779,,,0,,,0
039026430001,,"Katesgrove Lane",,51.448051825,-0.974334705,,,0,,,0
039025270002,,"Boston Avenue",,51.447302719,-0.978136075,,,0,,,0
039027190001,,"Shaw Road",,51.446151681,-0.98226283,,,0,,,0
039027170002,,Roundhead,,51.444997262,-0.986015327,,,0,,,0
039025670003,,"Coley Park House",,51.443579529,-0.989485664,,,0,,,0
039028300001,,"Wensley Road Flats",,51.442952084,-0.992852075,,,0,,,0
039028310001,,"Wensley Road West",,51.442084023,-0.995432303,,,0,,,0
039025680001,,"Coley Park Terminus",,51.442611307,-0.991765461,,,0,,,0
039025670002,,"Coley Park House",,51.443878182,-0.988780201,,,0,,,0
039027170001,,Roundhead,,51.445634096,-0.984792503,,,0,,,0
039027190002,,"Shaw Road",,51.446466331,-0.98121977,,,0,,,0
039025270001,,"Boston Avenue",,51.447592283,-0.978345465,,,0,,,0
039026430002,,"Katesgrove Lane",,51.448530663,-0.972539561,,,0,,,0
039028170001,,"Friar Street",,51.456645717,-0.970990076,,,0,,,0
039026410005,,"Huntley and Palmers",,51.455059895,-0.961440303,,,0,,,0
039025480003,,"Cemetery Junction",,51.453095548,-0.94987059,,,0,,,0
039025550001,,"Cholmeley Road",,51.453695297,-0.946561038,,,0,,,0
039026570001,,"Liverpool Road",,51.454991303,-0.940702239,,,0,,,0
035090100001,,"London Road, The Drive",,51.456132224,-0.934630821,,,0,,,0
035090120001,,"Shepherds House Lane",,51.45697558,-0.931459089,,,0,,,0
035090140001,,"Earley Power Station",,51.458067484,-0.925978457,,,0,,,0
035090160001,,"Shepherds Hill Top",,51.459367501,-0.921644167,,,0,,,0
035090180001,,"Sonning Lane",,51.4637085,-0.913624459,,,0,,,0
035090200001,,"Holmemoor Drive",,51.465576825,-0.909534856,,,0,,,0
035090220001,,"Hawthorn Way",,51.468716953,-0.902995813,,,0,,,0
035090240001,,"Model Farm",,51.47165871,-0.895481599,,,0,,,0
035090260003,,"Wee Waif",,51.474746419,-0.88918676,,,0,,,0
035091020001,,"Park View Drive South",,51.476114142,-0.885496138,,,0,,,0
035091040001,,"Chiltern Drive",,51.477704773,-0.882563031,,,0,,,0
035091060001,,"Waggon and Horses",,51.478217975,-0.872297757,,,0,,,0
035059870002,,"Old Silk Mill",,51.477821842,-0.870377953,,,0,,,0
035091100005,,"Wargrave Road",,51.478400142,-0.867872474,,,0,,,0
035091460002,,"Carlile Gardens",,51.485664305,-0.868671971,,,0,,,0
035091440002,,"Arnside Close",,51.486343479,-0.863585493,,,0,,,0
035091420002,,"Longfield Road",,51.48522602,-0.862403487,,,0,,,0
035091400002,,Pennfields,,51.483440133,-0.859985249,,,0,,,0
035091300002,,"Loddon Hall Road",,51.481521609,-0.861501977,,,0,,,0
035091200002,,"Springfield Park",,51.478891,-0.863770685,,,0,,,0
035091100003,,Waitrose,,51.477891187,-0.865451503,,,0,,,0
035091100002,,"Cross Roads",,51.477350104,-0.867149684,,,0,,,0
035059870001,,"Old Silk Mill",,51.477769983,-0.87059523,,,0,,,0
035091060002,,"Waggon and Horses",,51.478131952,-0.872703075,,,0,,,0
035091040002,,"Chiltern Drive",,51.477313336,-0.883004583,,,0,,,0
035091020002,,"Park View Drive South",,51.476298549,-0.885030868,,,0,,,0
035090260004,,"Wee Waif",,51.474466241,-0.889985493,,,0,,,0
035090260002,,"Milestone Avenue",,51.47380343,-0.892161353,,,0,,,0
035090240002,,"Model Farm",,51.471512296,-0.895211576,,,0,,,0
035090220002,,"Hawthorn Way",,51.468332947,-0.903278559,,,0,,,0
035090200002,,"Holmemoor Drive",,51.465256667,-0.909916776,,,0,,,0
035090180002,,"Sonning Lane",,51.462701099,-0.915534118,,,0,,,0
035090160002,,"Shepherds Hill Top",,51.458951303,-0.920387319,,,0,,,0
035090140002,,"Earley Power Station",,51.457843526,-0.926070073,,,0,,,0
035090120002,,"Shepherds House Lane",,51.456781938,-0.930931065,,,0,,,0
035090100003,,"London Rd - The Drive",,51.455394216,-0.93631985,,,0,,,0
039026570002,,"Liverpool Road",,51.454670104,-0.941976206,,,0,,,0
039025550002,,"Cholmeley Road",,51.453961441,-0.94515887,,,0,,,0
039026050006,,"Huntley and Palmers",,51.455324988,-0.962945513,,,0,,,0
039028150003,,"Blagrave Street",,51.457904677,-0.972026885,,,0,,,0
035090100004,,"London Road, The Drive",,51.45567282,-0.934540765,,,0,,,0
035085020001,,"Erleigh Court Drive",,51.454435688,-0.931000254,,,0,,,0
035085040001,,"Whitegates Lane",,51.453370003,-0.928520927,,,0,,,0
035085060001,,"Culver Lane",,51.452430882,-0.927103734,,,0,,,0
035085080001,,"Bulmershe Court",,51.45103832,-0.923308283,,,0,,,0
035085100001,,"Bulmershe Sports Centre",,51.451992164,-0.916550577,,,0,,,0
035085120001,,"Antrim Road",,51.449517822,-0.914436117,,,0,,,0
035085140001,,"North Lake",,51.446939774,-0.913748959,,,0,,,0
035085160001,,"Campbell Road",,51.445883474,-0.912320659,,,0,,,0
035085180001,,Thatchers,,51.444202916,-0.906619298,,,0,,,0
035085200001,,"Livingstone Gardens",,51.446422079,-0.905458287,,,0,,,0
035085220001,,"Mulberry Close",,51.44786408,-0.904848203,,,0,,,0
035085240001,,"Drovers Way Top",,51.446998283,-0.901688709,,,0,,,0
035085260001,,"Good Companions",,51.444627639,-0.899155494,,,0,,,0
035085280001,,"The Ridgeway",,51.442533338,-0.898284966,,,0,,,0
035085300001,,"Rivermead Road",,51.440799437,-0.897492167,,,0,,,0
035085320001,,"Colemans Moor Lane Foot",,51.445113003,-0.893402427,,,0,,,0
035085340001,,"Oak Drive",,51.447243111,-0.889494387,,,0,,,0
035085360001,,"Dunbar Drive",,51.449500477,-0.886690979,,,0,,,0
035085380001,,"Herald Way",,51.451431399,-0.883607422,,,0,,,0
035085400001,,"Sandford Lane",,51.453440537,-0.88024824,,,0,,,0
035085420001,,"Sunderland Close",,51.456567283,-0.880934581,,,0,,,0
035085440001,,"Harvard Close",,51.45706802,-0.883469943,,,0,,,0
035085460001,,"Lysander Close",,51.455000996,-0.885477756,,,0,,,0
035085480001,,"Woodley Piazza",,51.454376008,-0.888788831,,,0,,,0
035085500001,,"Headley Close",,51.456605065,-0.887741593,,,0,,,0
035085520001,,"Oakdale Walk",,51.457604588,-0.888839989,,,0,,,0
035085540001,,"Brandon Avenue",,51.460205908,-0.891972348,,,0,,,0
035085560001,,"Brecon Road Parade",,51.459372926,-0.894223579,,,0,,,0
035085580001,,"Ravensbourne Drive",,51.458041888,-0.898976817,,,0,,,0
035085600001,,"Wilmington Close",,51.455999229,-0.897860128,,,0,,,0
035085620001,,"Headley Road Circle",,51.45418097,-0.899573417,,,0,,,0
035085640001,,Chequers,,51.453714097,-0.907342018,,,0,,,0
035085660001,,Woodwaye,,51.453765329,-0.908981503,,,0,,,0
035085680001,,"Beaufield Close",,51.454054993,-0.913062003,,,0,,,0
035085700001,,"Chequers Way",,51.455123737,-0.914864485,,,0,,,0
035085720001,,"Howth Drive Top",,51.458149877,-0.914418508,,,0,,,0
035085740002,,"Hanwood Close",,51.458824554,-0.91736762,,,0,,,0
035085720002,,"Howth Drive Top",,51.457616008,-0.914056942,,,0,,,0
035085700002,,"Chequers Way",,51.455715474,-0.914677744,,,0,,,0
035085680002,,"Beaufield Close",,51.454175729,-0.913476513,,,0,,,0
035085660002,,Woodwaye,,51.453932366,-0.909538819,,,0,,,0
035085640002,,Chequers,,51.453720668,-0.905154252,,,0,,,0
035085620002,,"Headley Road Circle",,51.454248162,-0.899068069,,,0,,,0
035085600002,,"Wilmington Close",,51.456180919,-0.898057255,,,0,,,0
035085580002,,"Ravensbourne Drive",,51.45840831,-0.898737704,,,0,,,0
035085560002,,"Brecon Road Parade",,51.459440502,-0.893761339,,,0,,,0
035085540002,,"Brandon Avenue",,51.460300309,-0.891495052,,,0,,,0
035085520002,,"Oakdale Walk",,51.457310775,-0.888199422,,,0,,,0
035085500002,,"Headley Close",,51.455982462,-0.888461974,,,0,,,0
035085480002,,"Woodley Piazza",,51.454512901,-0.889001395,,,0,,,0
035085460002,,"Lysander Close",,51.45539053,-0.884834992,,,0,,,0
035085440002,,"Harvard Close",,51.457443675,-0.883259272,,,0,,,0
035085420002,,"Sunderland Close",,51.456220313,-0.880381738,,,0,,,0
035085400002,,"Sandford Lane",,51.453153275,-0.880298442,,,0,,,0
035085380002,,"Herald Way",,51.450393277,-0.885071852,,,0,,,0
035085360002,,"Dunbar Drive",,51.449454298,-0.886562585,,,0,,,0
035085340002,,"Oak Drive",,51.447739183,-0.888705279,,,0,,,0
035085320002,,"Colemans Moor Lane Foot",,51.444648923,-0.893773375,,,0,,,0
035085300002,,"Rivermead Road",,51.440770168,-0.897248274,,,0,,,0
035085280002,,"The Ridgeway",,51.442815132,-0.898609127,,,0,,,0
035085260002,,"Good Companions",,51.445313436,-0.899412408,,,0,,,0
035085240002,,"Drovers Way Top",,51.447237813,-0.902301739,,,0,,,0
035085220002,,"Mulberry Close",,51.447827046,-0.904733966,,,0,,,0
035085200002,,"Livingstone Gardens",,51.445567903,-0.905464316,,,0,,,0
035085180002,,Thatchers,,51.444179557,-0.907972438,,,0,,,0
035085160002,,"Campbell Road",,51.445483779,-0.911884076,,,0,,,0
035085140002,,"North Lake",,51.447095401,-0.914047459,,,0,,,0
035085120002,,"Antrim Road",,51.449573493,-0.914621878,,,0,,,0
035085100002,,"Bulmershe Sports Centre",,51.451809356,-0.917202524,,,0,,,0
035085080002,,"Bulmershe Court",,51.450732915,-0.92432285,,,0,,,0
035085060002,,"Culver Lane",,51.452719877,-0.927240879,,,0,,,0
035085040002,,"Whitegates Lane",,51.453261729,-0.928480285,,,0,,,0
035085020002,,"Erleigh Court Drive",,51.454383978,-0.931246132,,,0,,,0
039028170003,,"Friar Street",,51.456716472,-0.971880853,,,0,,,0
039025530004,,Cheapside,,51.455297467,-0.976187325,,,0,,,0
039027710002,,"Waylen Street",,51.454919416,-0.981305107,,,0,,,0
039026130001,,"George Street",,51.455453621,-0.986920737,,,0,,,0
039027070002,,"Reading West Rail Station",,51.455762841,-0.990454503,,,0,,,0
039025190001,,"Beresford Road",,51.456430096,-0.994858416,,,0,,,0
039025150001,,"West Village - Tesco",,51.457187848,-0.998296136,,,0,,,0
039027660001,,"Wantage Road",,51.458126528,-1.001873957,,,0,,,0
039025330001,,"Brock Gardens",,51.458850999,-1.004592957,,,0,,,0
039026960001,,"Pond House",,51.459651606,-1.00887933,,,0,,,0
039025320002,,"Brisbane Road",,51.457262279,-1.011305942,,,0,,,0
039025830003,,"Spey Road",,51.455396224,-1.015016356,,,0,,,0
039028520001,,"Oak Tree House",,51.456374235,-1.016909565,,,0,,,0
039027030002,,Ranikhet,,51.455737187,-1.018146625,,,0,,,0
039027440002,,"Tay Road",,51.454507889,-1.017381415,,,0,,,0
039027460001,,"Tern Close",,51.452655072,-1.021623566,,,0,,,0
039025840004,,"Dee Road top",,51.452014845,-1.024645074,,,0,,,0
039025910002,,"Dryland House",,51.452626879,-1.025797762,,,0,,,0
039025590002,,"Church End Lane",,51.453139855,-1.030190755,,,0,,,0
039025730002,,"Corwen Road",,51.452867978,-1.03211062,,,0,,,0
030055550002,,"St Michaels",,51.452646469,-1.034691418,,,0,,,0
039026460002,,"Keswick Close",,51.45513558,-1.037776491,,,0,,,0
039027570006,,"Tilehurst Triangle",,51.456677336,-1.040478744,,,0,,,0
039025510002,,"Chapel Hill",,51.456829176,-1.043656416,,,0,,,0
039026640001,,Mayfair,,51.455888752,-1.045216084,,,0,,,0
039025630001,,"City Road",,51.453305405,-1.045989558,,,0,,,0
039025160002,,"The Water Tower",,51.450775525,-1.046704265,,,0,,,0
030057040002,,"Yew Tree Rise",,51.445257073,-1.044804639,,,0,,,0
030054120004,,"Royal Avenue",,51.442547274,-1.045508642,,,0,,,0
030054120003,,"Royal Avenue",,51.44270128,-1.045649317,,,0,,,0
030057040001,,"Yew Tree Rise",,51.445505434,-1.045490152,,,0,,,0
039025160001,,"The Water Tower",,51.450902559,-1.046845532,,,0,,,0
039025630002,,"City Road",,51.454088496,-1.046088376,,,0,,,0
039025510001,,"Chapel Hill",,51.456911027,-1.04376985,,,0,,,0
039027570007,,"Tilehurst Triangle",,51.456739561,-1.040391082,,,0,,,0
039026460001,,"Keswick Close",,51.45483713,-1.037566878,,,0,,,0
039027330001,,"St Michaels",,51.452769016,-1.034285865,,,0,,,0
039025730001,,"Corwen Road",,51.45304208,-1.031416132,,,0,,,0
039025590001,,"Church End Lane",,51.453388426,-1.028717512,,,0,,,0
039025910001,,"Dryland House",,51.452625086,-1.025581925,,,0,,,0
039025840003,,"Dee Road top",,51.45202109,-1.023234572,,,0,,,0
039027460002,,"Tern Close",,51.45293255,-1.020394332,,,0,,,0
039027440001,,"Tay Road",,51.454370975,-1.01749244,,,0,,,0
039027030001,,Ranikhet,,51.455996939,-1.018025911,,,0,,,0
039025830004,,"Spey Road",,51.455513701,-1.015085791,,,0,,,0
039025320001,,"Brisbane Road",,51.45734501,-1.011520052,,,0,,,0
039026960003,,"Pond House",,51.459802599,-1.007594997,,,0,,,0
039025330002,,"Brock Gardens",,51.458568827,-1.003130948,,,0,,,0
039027660002,,"Wantage Road",,51.4577319,-0.999881889,,,0,,,0
039025150002,,"West Village - Tesco",,51.457124561,-0.997203642,,,0,,,0
039025190002,,"Beresford Road",,51.456310737,-0.993522499,,,0,,,0
039027070004,,"Reading West Rail Station",,51.455847414,-0.98983375,,,0,,,0
039026130002,,"George Street",,51.455443173,-0.985711988,,,0,,,0
039026960002,,"Pond House",,51.460385768,-1.009568745,,,0,,,0
039026790002,,"Norcot Junction",,51.461750911,-1.012576459,,,0,,,0
039025650001,,"Cold Store",,51.463867355,-1.016187185,,,0,,,0
039027140001,,"Romsey Road",,51.465462258,-1.019809415,,,0,,,0
039027720001,,"Weald Rise",,51.467064838,-1.022208051,,,0,,,0
039026440001,,"Kentwood Circle",,51.469668103,-1.02709061,,,0,,,0
039026870002,,"Overlanders End",,51.469793627,-1.031392674,,,0,,,0
039026830002,,"Oak Tree Copse",,51.470238247,-1.034061147,,,0,,,0
030050920001,,"Brooksby Road",,51.470732053,-1.040543943,,,0,,,0
030056370001,,"Tring Road",,51.46945691,-1.044054753,,,0,,,0
030051770001,,"Dell Road",,51.468036747,-1.046330283,,,0,,,0
030054500001,,"Dark Lane Foot",,51.465777641,-1.048277614,,,0,,,0
030052270002,,"Fairford Road",,51.466123538,-1.052128527,,,0,,,0
030051740002,,"Dark Lane Top",,51.467012328,-1.054183169,,,0,,,0
030051780001,,"Denefield School",,51.470874498,-1.054765609,,,0,,,0
030050040002,,"Addiscombe Chase",,51.47244095,-1.053883767,,,0,,,0
030056520002,,"Warley Rise",,51.474121894,-1.049371087,,,0,,,0
030052610002,,"Goodliffe Gardens",,51.475535327,-1.046260351,,,0,,,0
030052430002,,"Footpath to Highfield Road",,51.478522682,-1.047623643,,,0,,,0
030054140002,,"New Hill",,51.479811431,-1.046876796,,,0,,,0
030051460001,,"Colyton Way",,51.481245356,-1.044081979,,,0,,,0
030050800001,,"Brading Way",,51.482218308,-1.042103106,,,0,,,0
030051270001,,"Purley, Chestnut Grove",,51.481717922,-1.039190216,,,0,,,0
030056860001,,"Wintringham Way",,51.482894155,-1.041181673,,,0,,,0
030051460002,,"Colyton Way",,51.481440325,-1.043732286,,,0,,,0
030054140001,,"New Hill",,51.479819485,-1.046761426,,,0,,,0
030052430001,,"Footpath to Highfield Road",,51.478557006,-1.047421331,,,0,,,0
030052610001,,"Goodliffe Gardens",,51.475704035,-1.045997653,,,0,,,0
030056520001,,"Warley Rise",,51.474279751,-1.048878258,,,0,,,0
030055850001,,"Talbot Way",,51.473212583,-1.050340261,,,0,,,0
030050040001,,"Addiscombe Chase",,51.472334157,-1.05290692,,,0,,,0
030051780002,,"Denefield School",,51.470909532,-1.054649706,,,0,,,0
030051740001,,"Dark Lane Top",,51.466725964,-1.053238945,,,0,,,0
030052270001,,"Fairford Road",,51.465736751,-1.050999271,,,0,,,0
030054500002,,"Dark Lane Foot",,51.466075605,-1.048429771,,,0,,,0
030051770002,,"Dell Road",,51.468410826,-1.045890586,,,0,,,0
030056370002,,"Tring Road",,51.469432285,-1.044343207,,,0,,,0
039025340001,,"Brooksby Road",,51.470761418,-1.039737073,,,0,,,0
039026830001,,"Oak Tree Copse",,51.47022487,-1.033528732,,,0,,,0
039026870001,,"Overlanders End",,51.469879962,-1.030958932,,,0,,,0
039026440002,,"Kentwood Circle",,51.469793966,-1.027087934,,,0,,,0
039027720002,,"Weald Rise",,51.46768073,-1.022741955,,,0,,,0
039027530001,,"The Restoration",,51.46486381,-1.018137954,,,0,,,0
039025650002,,"Cold Store",,51.463728155,-1.015671951,,,0,,,0
039026790001,,"Norcot Junction",,51.461976392,-1.012657962,,,0,,,0
039027320002,,"St Mary's Butts",,51.454239025,-0.974426358,,,0,,,0
039025530003,,Cheapside,,51.455264144,-0.976490314,,,0,,,0
039027130001,,"Romany Lane",,51.460838489,-1.018497806,,,0,,,0
039026520001,,"Lawrence Road",,51.459628014,-1.022136635,,,0,,,0
039025580001,,"Church End Lane",,51.458899846,-1.027564215,,,0,,,0
039025260001,,"Blundells Road",,51.459710181,-1.033131841,,,0,,,0
039027780002,,"The Victoria",,51.460603205,-1.036754708,,,0,,,0
039027550002,,"Tilehurst Library",,51.459172422,-1.038814339,,,0,,,0
039027570004,,"Tilehurst Triangle",,51.458241643,-1.040445952,,,0,,,0
039027570003,,"Tilehurst Triangle",,51.458254282,-1.040891884,,,0,,,0
039027550001,,"Tilehurst Library",,51.459458459,-1.038606818,,,0,,,0
039027780003,,"The Victoria",,51.460901661,-1.035870375,,,0,,,0
039025260002,,"Blundells Road",,51.459607366,-1.031263815,,,0,,,0
039025580002,,"Church End Lane",,51.459117797,-1.026739141,,,0,,,0
039026520002,,"Lawrence Road",,51.459757346,-1.021471751,,,0,,,0
039027130002,,"Romany Lane",,51.461641342,-1.017732071,,,0,,,0
039025530006,,Cheapside,,51.455413961,-0.976141541,,,0,,,0
039027540002,,"Three Tuns",,51.442708486,-0.931792021,,,0,,,0
039027570005,,"Tilehurst Triangle",,51.457323576,-1.040335659,,,0,,,0
039027780001,,"The Victoria",,51.461439301,-1.035643132,,,0,,,0
039026450002,,"Kentwood Close",,51.462594531,-1.033977778,,,0,,,0
039025070002,,"Armour Hill",,51.465462272,-1.032056446,,,0,,,0
039025860001,,"Derwent Avenue",,51.467328878,-1.031272095,,,0,,,0
039026840001,,"Oak Tree Road",,51.469328052,-1.029458942,,,0,,,0
039028730002,,"Stone Street",,51.463130023,-1.011460022,,,0,,,0
039028720002,,"Bridgewater Close",,51.461590022,-1.005029996,,,0,,,0
039028710002,,"Portman Road Tesco",,51.460639957,-0.996010056,,,0,,,0
039028700002,,"Ashmere Terrace",,51.459780019,-0.992899956,,,0,,,0
039028690001,,"River Academy",,51.463159951,-0.988249965,,,0,,,0
039027110003,,"Rivermead Leisure Centre",,51.464385378,-0.983095359,,,0,,,0
039027500001,,"The Moderation",,51.464142638,-0.97689635,,,0,,,0
039027410001,,"Swansea Road",,51.462654066,-0.975303005,,,0,,,0
039025470001,,"Caversham Road Fire Station",,51.460231268,-0.975875441,,,0,,,0
039028460002,,"Forbury Retail Park",,51.457319907,-0.960770114,,,0,,,0
039028450002,,"The Meridian",,51.45674887,-0.959243022,,,0,,,0
039028440001,,"Kenavon Drive",,51.456458201,-0.956889183,,,0,,,0
039026100001,,"Greyfriars Road",,51.456913045,-0.975848934,,,0,,,0
039025470002,,"Caversham Road Fire Station",,51.460546047,-0.975882791,,,0,,,0
039027410002,,"Swansea Road",,51.462646836,-0.975504696,,,0,,,0
039027500002,,"The Moderation",,51.464570945,-0.977548967,,,0,,,0
039028680001,,"Rivermead Leisure Centre",,51.46405996,-0.985139963,,,0,,,0
039028700001,,"Ashmere Terrace",,51.460209989,-0.994259951,,,0,,,0
039028710001,,"Portman Road Tesco",,51.460669991,-0.998250007,,,0,,,0
039028720001,,"Bridgewater Close",,51.461780013,-1.006439991,,,0,,,0
039028730001,,"Stone Street",,51.46287001,-1.012669919,,,0,,,0
039026840002,,"Oak Tree Road",,51.46884651,-1.029944251,,,0,,,0
039025860002,,"Derwent Avenue",,51.466781663,-1.031427641,,,0,,,0
039025070001,,"Armour Hill",,51.46533887,-1.032019613,,,0,,,0
039026450001,,"Kentwood Close",,51.462477657,-1.033980245,,,0,,,0
039028450001,,"The Meridian",,51.45629413,-0.958663251,,,0,,,0
039028460001,,"Forbury Retail Park",,51.457158851,-0.96086013,,,0,,,0
039028160002,,"Forbury Road",,51.457896749,-0.970098345,,,0,,,0
039025010003,,"Alexandra Road",,51.448019422,-0.951354099,,,0,,,0
039026080002,,"Foxhill Road",,51.448551553,-0.948521374,,,0,,,0
039028200002,,"Eastern Avenue Foot",,51.44677091,-0.944489913,,,0,,,0
039026700001,,Mockbeggar,,51.44547117,-0.939958391,,,0,,,0
039025310001,,"Bridges Hall",,51.443599813,-0.935872081,,,0,,,0
035084100001,,"Earley Gate",,51.440892639,-0.931848763,,,0,,,0
035084120001,,"Ramsbury Drive",,51.438156324,-0.932531229,,,0,,,0
035084140001,,"Kennedy Gardens",,51.436756468,-0.929887907,,,0,,,0
035084160001,,"Silverdale Road Shops",,51.436489329,-0.92623992,,,0,,,0
035084180001,,Lakeside,,51.435061445,-0.922518572,,,0,,,0
035084200001,,"Kenton Road",,51.435469619,-0.918020409,,,0,,,0
035084220001,,"Hillside Road",,51.434642932,-0.913220572,,,0,,,0
035084240001,,"Gipsy Lane",,51.433415325,-0.910775343,,,0,,,0
035084250001,,"Gipsy Lane - Mill Lane",,51.433967151,-0.907266435,,,0,,,0
035084420002,,"Mill Lane - Gipsy Lane",,51.434430471,-0.906809413,,,0,,,0
035084400002,,"Skelmerdale Way Footpath",,51.437690857,-0.907379018,,,0,,,0
035086080002,,"Coppice Road",,51.440202181,-0.899002889,,,0,,,0
035086060002,,"Coppice Road Parade",,51.440556432,-0.902260456,,,0,,,0
035085800002,,"Hearn Road",,51.443781035,-0.903809119,,,0,,,0
035085240004,,"Drovers Way Top",,51.447147808,-0.903253643,,,0,,,0
035086160001,,"Colemans Moor Lane Top",,51.448396364,-0.898316576,,,0,,,0
035086200001,,"Chapel Hall",,51.449982706,-0.897760327,,,0,,,0
035086220001,,"Austin Road",,51.449896427,-0.893373157,,,0,,,0
035085340003,,"Oak Drive",,51.447584453,-0.889457328,,,0,,,0
035085380003,,"Herald Way",,51.451124053,-0.88532749,,,0,,,0
035086300001,,"Viscount Way",,51.45172673,-0.889140971,,,0,,,0
035093500001,,"Victor Way",,51.452695285,-0.88697308,,,0,,,0
035093520001,,"Comet Way - Rose Close",,51.453585259,-0.883166306,,,0,,,0
035086520002,,"Headley Park",,51.453863561,-0.892600819,,,0,,,0
035086540002,,Adwest,,51.453297683,-0.894571827,,,0,,,0
035085940002,,"Palmerstone Road",,51.449102753,-0.926980257,,,0,,,0
035085960002,,"Anderson Avenue",,51.446643055,-0.927426428,,,0,,,0
035085980002,,"St Peters Church",,51.443864001,-0.929333318,,,0,,,0
035084000001,,"Earley Crossroads",,51.440976116,-0.931141798,,,0,,,0
035084100002,,"Earley Gate",,51.440831544,-0.932051621,,,0,,,0
039025310002,,"Bridges Hall",,51.443702227,-0.936258204,,,0,,,0
039026700002,,Mockbeggar,,51.44572313,-0.94097422,,,0,,,0
039028200001,,"Eastern Avenue Foot",,51.446827311,-0.944762022,,,0,,,0
039026080001,,"Foxhill Road",,51.448522003,-0.948234243,,,0,,,0
039025010001,,"Alexandra Road",,51.447792369,-0.952107592,,,0,,,0
035093120002,,"Culver Lane (Hail & Ride)",,51.452042979,-0.92991919,,,0,,,0
035093100002,,"Eastcourt Avenue",,51.449543242,-0.929920053,,,0,,,0
035081060001,,"Wilderness Court",,51.436333387,-0.934774873,,,0,,,0
035081080001,,"Hilbury Road",,51.434897884,-0.932161191,,,0,,,0
035081100001,,"Dene Close",,51.433324715,-0.929248787,,,0,,,0
035081120001,,"Chelwood Road",,51.43089321,-0.925896379,,,0,,,0
035081140001,,"Thanington Way",,51.429155532,-0.924671287,,,0,,,0
035081160001,,"Fleetham Gardens",,51.428557048,-0.920211835,,,0,,,0
035081180001,,"Cutbush Lane",,51.426105888,-0.917680572,,,0,,,0
035081200001,,"Doddington Close",,51.425016017,-0.915534461,,,0,,,0
035081240001,,"Littington Close",,51.423079049,-0.915134441,,,0,,,0
035093020001,,"Chatteris Way - Gregory Close",,51.422825078,-0.917815588,,,0,,,0
035093040001,,"Chatteris Way - Firmstone Close",,51.4240306,-0.920807512,,,0,,,0
035093060001,,"Cutbush Lane",,51.423671768,-0.924814354,,,0,,,0
035081300001,,"Cutbush Close",,51.422762752,-0.927669018,,,0,,,0
035081320001,,"Bradmore Way",,51.421905112,-0.930249107,,,0,,,0
035060080002,,"Beeston Way",,51.421494499,-0.934530149,,,0,,,0
035083500002,,"Chalfont Way Asda",,51.424134038,-0.934080442,,,0,,,0
035083500001,,"Chalfont Way Asda",,51.424422634,-0.93417441,,,0,,,0
035060080001,,"Beeston Way",,51.421353113,-0.933814338,,,0,,,0
035081320002,,"Bradmore Way",,51.421995537,-0.930304525,,,0,,,0
035081300002,,"Cutbush Close",,51.423140769,-0.926725307,,,0,,,0
035093060002,,"Cutbush Lane",,51.423831478,-0.924580483,,,0,,,0
035093040002,,"Chatteris Way - Firmstone Close",,51.424181709,-0.920616976,,,0,,,0
035093020002,,"Chatteris Way - Gregory Close",,51.422820564,-0.917326691,,,0,,,0
035081240002,,"Littington Close",,51.423293478,-0.914985538,,,0,,,0
035081200002,,"Doddington Close",,51.425090862,-0.915849119,,,0,,,0
035081180002,,"Cutbush Lane",,51.426879589,-0.918697924,,,0,,,0
035081160002,,"Fleetham Gardens",,51.428413209,-0.920215225,,,0,,,0
035081140002,,"Thanington Way",,51.428831497,-0.924635739,,,0,,,0
035081120002,,"Chelwood Road",,51.431303292,-0.926490939,,,0,,,0
035081100002,,"Dene Close",,51.433882426,-0.930257151,,,0,,,0
035081080002,,"Hilbury Road",,51.434991975,-0.932619357,,,0,,,0
035081060003,,"Wilderness Court",,51.43724697,-0.934379566,,,0,,,0
035084120002,,"Ramsbury Drive",,51.438523997,-0.932421949,,,0,,,0
035084240002,,"Gipsy Lane",,51.433600466,-0.911346374,,,0,,,0
035084220002,,"Hillside Road",,51.434931348,-0.914263926,,,0,,,0
035084200002,,"Kenton Road",,51.435286403,-0.918628964,,,0,,,0
035084180002,,Lakeside,,51.435055363,-0.921856946,,,0,,,0
035084160002,,"Silverdale Road Shops",,51.436456398,-0.926571586,,,0,,,0
035084140002,,"Kennedy Gardens",,51.436750234,-0.930190176,,,0,,,0
035084000002,,"Earley Crossroads",,51.441112671,-0.931325657,,,0,,,0
035085980001,,"St Peters Church",,51.444008104,-0.929358727,,,0,,,0
035085960001,,"Anderson Avenue",,51.446420674,-0.927690654,,,0,,,0
035085940001,,"Palmerstone Road",,51.449724245,-0.927095209,,,0,,,0
035086520001,,"Headley Park",,51.453873638,-0.892715713,,,0,,,0
035093520002,,"Comet Way - Rose Close",,51.45359329,-0.883065365,,,0,,,0
035093500002,,"Victor Way",,51.452632492,-0.886988998,,,0,,,0
035086220002,,"Austin Road",,51.449732029,-0.893103703,,,0,,,0
035086200004,,"Chapel Hall",,51.449865026,-0.897676814,,,0,,,0
035086160002,,"Colemans Moor Lane Top",,51.44851107,-0.898083567,,,0,,,0
035085240003,,"Drovers Way Top",,51.447074678,-0.903125884,,,0,,,0
035085800001,,"Hearn Road",,51.443688849,-0.903566713,,,0,,,0
035086060001,,"Coppice Road Parade",,51.440710607,-0.902400642,,,0,,,0
035086080001,,"Coppice Road",,51.44026457,-0.898943837,,,0,,,0
035084400001,,"Skelmerdale Way Footpath",,51.437518172,-0.907181719,,,0,,,0
035084420001,,"Mill Lane - Gipsy Lane",,51.43481677,-0.906771422,,,0,,,0
035093100001,,"Eastcourt Avenue",,51.449419089,-0.930110035,,,0,,,0
035093120001,,"Culver Lane (Hail & Ride)",,51.452106303,-0.929960885,,,0,,,0
039028150004,,"Reading Station",,51.457987385,-0.971204601,,,0,,,0
039026610001,,"Kendrick Student Village",,51.45025857,-0.964528163,,,0,,,0
039028220001,,"Crown Place Passage",,51.448878896,-0.964084476,,,0,,,0
039026750002,,"Morgan Road",,51.447057307,-0.963492528,,,0,,,0
039027640002,,"Vicarage Road",,51.443926057,-0.96021076,,,0,,,0
039027900002,,"UoR Whiteknights House",,51.440848859,-0.947892498,,,0,,,0
039026930002,,"Pepper Lane University",,51.437103724,-0.945388882,,,0,,,0
035081020001,,"Harcourt Drive",,51.435128961,-0.941780232,,,0,,,0
035082020001,,"Wychwood Crescent",,51.433248925,-0.939708964,,,0,,,0
035082040001,,Brerewood,,51.430397406,-0.938595404,,,0,,,0
035082060001,,"Chalfont Way Circle",,51.427304299,-0.935632067,,,0,,,0
035082080001,,"Rosemary Avenue",,51.424453011,-0.940502195,,,0,,,0
035082100001,,"Ryhill Way",,51.422191594,-0.938023206,,,0,,,0
035082120001,,"Chatton Close (Asda)",,51.424888091,-0.929992491,,,0,,,0
035082140001,,"Faygate Way",,51.426775581,-0.927934701,,,0,,,0
035082160001,,"Beech Lane",,51.428311396,-0.924791788,,,0,,,0
035082180001,,Marefield,,51.43060973,-0.917559792,,,0,,,0
035082340002,,"Chilcombe Way",,51.430075441,-0.914235159,,,0,,,0
035082320002,,"Felixstowe Close",,51.427993676,-0.911796047,,,0,,,0
035082300002,,"Kitwood Drive",,51.42810505,-0.906370591,,,0,,,0
035082280002,,"Easington Drive",,51.429602438,-0.903026394,,,0,,,0
035084280001,,"Hawkedon Way",,51.431660625,-0.907738623,,,0,,,0
035082200002,,"Sellafield Way",,51.43146249,-0.913511799,,,0,,,0
035082180002,,Marefield,,51.430094019,-0.918190519,,,0,,,0
035082160002,,"Beech Lane",,51.428175887,-0.924723047,,,0,,,0
035082140002,,"Faygate Way",,51.426026073,-0.928570725,,,0,,,0
035082120002,,"Chatton Close (Asda)",,51.424084894,-0.930658473,,,0,,,0
035082100002,,"Ryhill Way",,51.422201488,-0.939116026,,,0,,,0
035082080002,,"Rosemary Avenue",,51.425525056,-0.939729478,,,0,,,0
035082060002,,"Chalfont Way Circle",,51.427800839,-0.935850677,,,0,,,0
035082040002,,Brerewood,,51.430545542,-0.939066672,,,0,,,0
035082020002,,"Wychwood Crescent",,51.432981695,-0.939988475,,,0,,,0
035081020002,,"Harcourt Drive",,51.434628536,-0.94113003,,,0,,,0
039026930001,,"Pepper Lane University",,51.436657777,-0.944794906,,,0,,,0
039027900001,,"UoR Chancellor's Way",,51.440261322,-0.94855345,,,0,,,0
039025570001,,"Christchurch Green",,51.443026712,-0.956144775,,,0,,,0
039027640001,,"Vicarage Road",,51.444006265,-0.961144227,,,0,,,0
039026750001,,"Morgan Road",,51.447328917,-0.963702231,,,0,,,0
039028220002,,"Crown Place Passage",,51.448916127,-0.96422754,,,0,,,0
039026610002,,"Kendrick Student Village",,51.450097257,-0.964589375,,,0,,,0
039026100003,,"Friar Street",,51.456688985,-0.974904007,,,0,,,0
039028160001,,"Forbury Road",,51.457975511,-0.969851885,,,0,,,0
039028320001,,"Station North Interchange",,51.460470287,-0.971335913,,,0,,,0
039025290002,,"Bridge Street Caversham",,51.466490054,-0.976959032,,,0,,,0
039025600001,,"Church Street",,51.467763071,-0.975490917,,,0,,,0
039025460001,,"Caversham Library",,51.468427137,-0.974309913,,,0,,,0
039026980001,,"Priest Hill",,51.470245569,-0.977638112,,,0,,,0
039027510001,,"The Mount",,51.471009691,-0.980716505,,,0,,,0
039026320001,,"Highmoor Road, Albert Road",,51.474066336,-0.982721781,,,0,,,0
039027270002,,"St Andrew's Church",,51.47632557,-0.985061803,,,0,,,0
039027100001,,"Richmond Road",,51.478522448,-0.987475434,,,0,,,0
039027600002,,"Uplands Road",,51.480989535,-0.988904083,,,0,,,0
039028480001,,"Caversham Rose",,51.480116396,-0.98463207,,,0,,,0
039027100004,,"Richmond Road",,51.477206619,-0.988166939,,,0,,,0
039027340002,,"St Peters Avenue",,51.477278025,-0.992283615,,,0,,,0
039026220002,,"Gurney Close",,51.477922798,-0.995120548,,,0,,,0
039025230002,,"Blagrave Lane",,51.479759006,-0.997441848,,,0,,,0
039026350001,,"Hilltop Road",,51.482002088,-0.994771697,,,0,,,0
039026040001,,"Fernbrook Road",,51.479611933,-0.993917017,,,0,,,0
039027340001,,"St Peter's Avenue",,51.477160615,-0.991177443,,,0,,,0
039026250001,,"Harrogate Road",,51.474821708,-0.988968427,,,0,,,0
039026330002,,"Highmoor Road Church",,51.47282948,-0.987342279,,,0,,,0
039025820001,,"Darell Road",,51.473452872,-0.984564007,,,0,,,0
039026320003,,"Highmoor Road, Albert Road",,51.473476111,-0.982058186,,,0,,,0
039027510002,,"The Mount",,51.470819825,-0.980441857,,,0,,,0
039025250001,,"Blenheim Road",,51.471003746,-0.97796671,,,0,,,0
039027280001,,"St Anne's Well",,51.469830344,-0.976423632,,,0,,,0
039025460002,,"Caversham Library",,51.467879498,-0.974408569,,,0,,,0
039025290001,,"Bridge Street, Caversham",,51.466865628,-0.976720295,,,0,,,0
039026100004,,"Friar Street",,51.456712936,-0.974558038,,,0,,,0
039027770002,,"Westfield Road",,51.466465813,-0.969056111,,,0,,,0
039027680001,,"Washington Road",,51.465862167,-0.96483731,,,0,,,0
039027300002,,"St John's Road",,51.465431154,-0.961852736,,,0,,,0
039026720001,,"Montague Street",,51.465894805,-0.959380511,,,0,,,0
039027360002,,"Star Inn",,51.468960788,-0.959353968,,,0,,,0
039025540001,,"Chiltern Road",,51.470683083,-0.957875047,,,0,,,0
039027590001,,"Travellers Rest",,51.470641678,-0.954233439,,,0,,,0
039025030001,,"All Hallows Road",,51.471463222,-0.95157988,,,0,,,0
039026670001,,"Micklands Road",,51.473335273,-0.946756741,,,0,,,0
039026300002,,"Henley Road County Boundary",,51.474861188,-0.942459568,,,0,,,0
039025870001,,"Devon Drive",,51.477792741,-0.944479742,,,0,,,0
039025930001,,"Dumbarton Way",,51.480296428,-0.945919609,,,0,,,0
039028000001,,"Littlestead Close",,51.481814568,-0.945755008,,,0,,,0
039026860001,,"Osterley Drive",,51.483962847,-0.946670391,,,0,,,0
039027020001,,Queensway,,51.485002559,-0.953328953,,,0,,,0
039026090001,,"Fraser Avenue",,51.485207866,-0.957198399,,,0,,,0
039026480002,,"Kiln Road",,51.487033287,-0.961261507,,,0,,,0
039025740001,,"Courtenay Drive Top",,51.488052019,-0.962577834,,,0,,,0
039025770001,,"Crawshay Drive",,51.487897675,-0.966484513,,,0,,,0
039025490002,,"Chalgrove Way",,51.484744541,-0.964784352,,,0,,,0
039025220002,,"Black Horse",,51.483278024,-0.964687939,,,0,,,0
039027290001,,"St Barnabas Church",,51.482448844,-0.969574299,,,0,,,0
039027250002,,"Southdown Road",,51.479651809,-0.968485297,,,0,,,0
039027160002,,"Rotherfield Way",,51.477620142,-0.971612637,,,0,,,0
039026200002,,"Grove Hill",,51.475787932,-0.974936812,,,0,,,0
039027650002,,"Victoria Road",,51.473732409,-0.974320547,,,0,,,0
039027010002,,"Queen Street",,51.472215857,-0.974671304,,,0,,,0
039026290002,,"Hemdean Hill",,51.469922434,-0.973585325,,,0,,,0
039026290001,,"Hemdean Hill",,51.470571482,-0.973772327,,,0,,,0
039027010001,,"Queen Street",,51.472649393,-0.974891956,,,0,,,0
039027650001,,"Victoria Road",,51.474496187,-0.974260226,,,0,,,0
039026200003,,"Grove Hill",,51.476238567,-0.975056306,,,0,,,0
039027160001,,"Rotherfield Way",,51.478369245,-0.9709046,,,0,,,0
039027250001,,"Southdown Road",,51.480193234,-0.967681062,,,0,,,0
039027290002,,"St Barnabas Church",,51.481947931,-0.969873605,,,0,,,0
039025220001,,"Black Horse",,51.483367797,-0.964671505,,,0,,,0
039025490001,,"Chalgrove Way",,51.485639761,-0.965354572,,,0,,,0
039025770002,,"Crawshay Drive",,51.488021251,-0.966222467,,,0,,,0
039025740002,,"Courtenay Drive Top",,51.488121519,-0.962302601,,,0,,,0
039026480003,,"Kiln Road",,51.485760467,-0.960699933,,,0,,,0
039025440001,,"Cavendish Road",,51.483638305,-0.962721175,,,0,,,0
039025120001,,"Barnard Close",,51.482990196,-0.959596387,,,0,,,0
039025060001,,"Ariel View",,51.4828091,-0.956417827,,,0,,,0
039026680001,,"Milestone Centre",,51.481913085,-0.953745289,,,0,,,0
039026730001,,"Montpelier Drive",,51.480249933,-0.952775306,,,0,,,0
039026120001,,"Galsworthy Drive",,51.478701304,-0.950535568,,,0,,,0
039025960001,,"Earlsfield Close",,51.476916715,-0.946055097,,,0,,,0
039026300003,,"Henley Road County Boundary",,51.474664706,-0.942608097,,,0,,,0
039026670002,,"Micklands Road",,51.473191692,-0.946788843,,,0,,,0
039025030002,,"All Hallows Road",,51.471485301,-0.951032261,,,0,,,0
039027590002,,"Travellers Rest",,51.470576694,-0.954004565,,,0,,,0
039025540002,,"Chiltern Road",,51.470595356,-0.958121802,,,0,,,0
039027360001,,"Star Inn",,51.467964172,-0.959520602,,,0,,,0
039026720002,,"Montague Street",,51.466217935,-0.959315578,,,0,,,0
039027300001,,"St Johns Road",,51.465502234,-0.962772456,,,0,,,0
039026000001,,"Elizabeth House",,51.466127356,-0.967379404,,,0,,,0
039027770001,,"Westfield Road",,51.466794497,-0.970646685,,,0,,,0
039025600002,,"Church Street",,51.467476128,-0.973525032,,,0,,,0
039026340001,,"Hill's Meadow",,51.461776294,-0.967491979,,,0,,,0
039025450001,,"Caversham Laundry",,51.464092928,-0.96610094,,,0,,,0
039027000001,,"Prospect Street",,51.468593494,-0.971743557,,,0,,,0
039026770001,,"Newlands Avenue",,51.471466308,-0.969173791,,,0,,,0
039025110001,,"Balmore Drive",,51.473060208,-0.968417965,,,0,,,0
039027400001,,"Surley Row",,51.47698264,-0.966601572,,,0,,,0
039025370002,,"Buckingham Drive",,51.479165166,-0.965299448,,,0,,,0
039027520001,,"The Pond",,51.482246297,-0.963933638,,,0,,,0
039025440002,,"Cavendish Road",,51.483192496,-0.963148927,,,0,,,0
039028110001,,"Courtenay Drive",,51.489072293,-0.962036166,,,0,,,0
039027150002,,"Rose Hill",,51.491053789,-0.96240889,,,0,,,0
340001635ENT,,"Abbey Rugby Club",,51.499173248,-0.964428745,,,0,,,0
340003251OPP,,"Bird in Hand Turn",,51.505534554,-0.971027721,,,0,,,0
340001634OPP,,"Essex Way",,51.508550901,-0.976637079,,,0,,,0
340001633NOR,,"Westleigh Drive Turn",,51.511841299,-0.981736704,,,0,,,0
340001632CNR,,"Kidmore End Turn",,51.514699004,-0.984656139,,,0,,,0
340001637OUT,,"Post Office",,51.517084607,-0.981864817,,,0,,,0
340001646WOO,,"Brinds Corner",,51.518434491,-0.977856879,,,0,,,0
340001647CHU,,"Sedgewell Road",,51.52100486,-0.980811728,,,0,,,0
340001631OBC,,"Gravel Hill Top",,51.523651697,-0.98326071,,,0,,,0
340003252OUT,,"Peppard Stores",,51.525969961,-0.986192962,,,0,,,0
340001648SOU,,"Peppard Cricket Club",,51.528183997,-0.989560285,,,0,,,0
340000607UNI,,"Peppard Common, Unicorn",,51.530460458,-0.99128757,,,0,,,0
340001648NOR,,"Peppard Cricket Club",,51.52797251,-0.989017177,,,0,,,0
340003252OPP,,"Peppard Stores",,51.525950113,-0.98597718,,,0,,,0
340001631BLO,,"Gravel Hill Top",,51.52347664,-0.982774529,,,0,,,0
340001647OPP,,"Sedgewell Road",,51.520665594,-0.9800554,,,0,,,0
340001646BRI,,"Brinds Corner",,51.518152082,-0.97846852,,,0,,,0
340001637OPP,,"Sonning Common PO",,51.516851616,-0.981956482,,,0,,,0
340001632OPP,,"Kidmore End Turn",,51.514492607,-0.98470396,,,0,,,0
340001633SOU,,"Westleigh Drive",,51.511649507,-0.981395131,,,0,,,0
340001634CNR,,"Essex Way",,51.508420642,-0.97613567,,,0,,,0
340003251OUT,,"Bird in Hand Turn",,51.505333615,-0.970672037,,,0,,,0
340001635OPP,,"Abbey Rugby Club",,51.49925365,-0.964369298,,,0,,,0
039027580002,,"Tower Close",,51.492945964,-0.961832977,,,0,,,0
039027150001,,"Rose Hill",,51.490611368,-0.962202875,,,0,,,0
039028110002,,"Courtenay Drive, Peppard Road",,51.489088489,-0.961834153,,,0,,,0
039027520002,,"The Pond",,51.4820299,-0.963866536,,,0,,,0
039025370001,,"Buckingham Drive",,51.479289375,-0.965109436,,,0,,,0
039027400002,,"Surley Row",,51.476614302,-0.966638692,,,0,,,0
039025110002,,"Balmore Drive",,51.473451718,-0.96794839,,,0,,,0
039026770002,,"Newlands Avenue",,51.471267767,-0.969091879,,,0,,,0
039027000002,,"Prospect Street",,51.468352529,-0.971950526,,,0,,,0
039026500001,,"Kings Road, Caversham",,51.465440802,-0.965998506,,,0,,,0
039026340002,,"Hills Meadow",,51.462926124,-0.966343226,,,0,,,0
039028320003,,"Station North Interchange",,51.460298466,-0.971224621,,,0,,,0
340001653OUT,,"Bird Wood Court",,51.509728415,-0.972475107,,,0,,,0
340003253OPP,,"Reddish Manor",,51.514344933,-0.975988472,,,0,,,0
039027230001,,"Southcote Road (Southcote Lane)",,51.447640561,-0.995382351,,,0,,,0
039026710001,,"Monks Way",,51.445101972,-0.999251226,,,0,,,0
039027220001,,"Southcote Farm Lane",,51.444058792,-1.001346044,,,0,,,0
039026030001,,"Fawley Road",,51.443144907,-1.004905604,,,0,,,0
039025610001,,"Circuit Lane (Southcote Lane)",,51.442298455,-1.007945575,,,0,,,0
039025720001,,"Coronation Square",,51.441406486,-1.010928864,,,0,,,0
039026110001,,"Frilsham Road",,51.442109097,-1.014280577,,,0,,,0
039025090002,,"Ashampstead Road",,51.442626794,-1.018111181,,,0,,,0
039026370001,,"Holybrook Crescent",,51.441446977,-1.020035717,,,0,,,0
039025950001,,"Dwyer Road Boundary",,51.441855761,-1.021609686,,,0,,,0
030055830002,,"Swanholm Gardens",,51.44204548,-1.026037253,,,0,,,0
030053420002,,"Kennet Valley School",,51.439682144,-1.025137926,,,0,,,0
030051360002,,"Churchward Walk",,51.438345436,-1.02659071,,,0,,,0
030050060001,,"Albury Gardens",,51.43839421,-1.031395006,,,0,,,0
030055800002,,"Sutherland Grove",,51.439360832,-1.03302913,,,0,,,0
030053430002,,"Kettering Close",,51.441591626,-1.034219418,,,0,,,0
030053560001,,Knollmead,,51.441503466,-1.038811111,,,0,,,0
030053640002,,"Ledbury Drive",,51.440296872,-1.041901037,,,0,,,0
030054700001,,"Pemberton Gardens",,51.44065193,-1.044641702,,,0,,,0
030050400001,,"Fernhurst Road",,51.440361841,-1.047669197,,,0,,,0
030056320002,,"Torcross Grove",,51.439405974,-1.052882967,,,0,,,0
030059220001,,Dunelm,,51.440576397,-1.064268355,,,0,,,0
030058790001,,"Calcot (IKEA)",,51.44139199,-1.067128023,,,0,,,0
030056320001,,"Torcross Grove",,51.439652008,-1.052172887,,,0,,,0
030050400002,,"Fernhurst Road",,51.440450576,-1.047523473,,,0,,,0
030054700002,,"Pemberton Gardens",,51.440610575,-1.043980721,,,0,,,0
030053640001,,"Ledbury Drive",,51.440331422,-1.04172766,,,0,,,0
030053560002,,Knollmead,,51.441629684,-1.038851627,,,0,,,0
030053430001,,"Kettering Close",,51.441889726,-1.034385792,,,0,,,0
030055800001,,"Sutherland Grove",,51.440079817,-1.032985175,,,0,,,0
030050060002,,"Albury Gardens",,51.438406248,-1.03067539,,,0,,,0
030051360001,,"Churchward Walk",,51.438314846,-1.027238784,,,0,,,0
030053420001,,"Kennet Valley School",,51.440098446,-1.025459983,,,0,,,0
030055830001,,"Swanholm Gardens",,51.442125675,-1.025949217,,,0,,,0
039025950002,,"Dwyer Road Boundary",,51.442066857,-1.022123158,,,0,,,0
039026370002,,"Holybrook Crescent",,51.441499476,-1.019861936,,,0,,,0
039025090001,,"Ashampstead Road",,51.442733111,-1.01792185,,,0,,,0
039026110002,,"Frilsham Road",,51.44185338,-1.013811266,,,0,,,0
039025720002,,"Coronation Square",,51.441553858,-1.01027821,,,0,,,0
039025610002,,"Circuit Lane (Southcote Lane)",,51.442718293,-1.006555175,,,0,,,0
039026030002,,"Fawley Road",,51.443427098,-1.004251975,,,0,,,0
039027220002,,"Southcote Farm Lane",,51.444643931,-1.000369206,,,0,,,0
039026710002,,"Monks Way",,51.446157303,-0.997530178,,,0,,,0
039027180002,,"Russell Street",,51.451389175,-0.981714662,,,0,,,0
039025430001,,"Castle Street",,51.453001222,-0.975806924,,,0,,,0
340001663OPP,,"Garden Centre",,51.477646373,-0.93425936,,,0,,,0
340001669SCO,,"Shiplake College",,51.499634269,-0.898551325,,,0,,,0
340001667OUT,,"Mill Lane",,51.503463708,-0.894612125,,,0,,,0
340001680OSR,,"Station Road, Shiplake",,51.509937629,-0.891732015,,,0,,,0
340001670OPP,,"Bolney Lane",,51.51438551,-0.892359073,,,0,,,0
340000364TN,,Allotments,,51.525395315,-0.894672245,,,0,,,0
340003222TEN,,"Tesco Superstore",,51.527122264,-0.895682753,,,0,,,0
340000736OPP,,"Newtown Road",,51.528555361,-0.896828307,,,0,,,0
340001522WAV,,"Niagara Road",,51.529921447,-0.898844269,,,0,,,0
340001521CNR,,"St Marks Road",,51.532067753,-0.901430781,,,0,,,0
340003223CNR,,"Norman Avenue",,51.534454804,-0.902843927,,,0,,,0
340000393BEL,,"Bell Street, Henley-on-Thames",,51.537755322,-0.904826452,,,0,,,0
340000393TH,,"Hart Street, Henley-on-Thames",,51.537572671,-0.903561998,,,0,,,0
340000270STN,,"Henley-on-thames Stn",,51.534761846,-0.901063167,,,0,,,0
340001521OPP,,"St Marks Road",,51.532392598,-0.901552716,,,0,,,0
340001522OPP,,"Niagara Road",,51.529381174,-0.897804931,,,0,,,0
340000736CNR,,"Newtown Road",,51.52791743,-0.896095986,,,0,,,0
340003222TES,,"Tesco Superstore",,51.526750021,-0.895302547,,,0,,,0
340000364TS,,Allotments,,51.525194825,-0.894388804,,,0,,,0
340001670CNR,,"Bolney Lane",,51.514511231,-0.892341613,,,0,,,0
340001680SRD,,"Station Road, Shiplake",,51.51024955,-0.890485188,,,0,,,0
340001667OPP,,"Mill Lane",,51.503407869,-0.894411766,,,0,,,0
340001669SCA,,"Shiplake College",,51.499378842,-0.898707885,,,0,,,0
340001663GAR,,"Garden Centre",,51.477466182,-0.93422036,,,0,,,0
340001664OUT,,"Play Hatch Roundabout W",,51.478645002,-0.933328892,,,0,,,0
340000269WEL,,"The Green",,51.488362975,-0.937048614,,,0,,,0
340001665OPP,,"Bints Farm",,51.492185707,-0.934208517,,,0,,,0
340000094INN,,"Gravel Road",,51.495600145,-0.930974136,,,0,,,0
340001666OPP,,"Binfield Heath, Heathfield Close",,51.500736266,-0.924284424,,,0,,,0
340000094WHO,,"The White Hart PH",,51.500990646,-0.910923108,,,0,,,0
340001668CNR,,"Memorial Avenue",,51.500665322,-0.905917242,,,0,,,0
340000658PA,,"The Plowden Arms PH",,51.499187413,-0.899801053,,,0,,,0
340000651PH,,"The Plowden Arms PH",,51.499122052,-0.89954331,,,0,,,0
340001668OPP,,"Memorial Avenue",,51.500556772,-0.905847807,,,0,,,0
340000094WHT,,"The White Hart PH",,51.5008044,-0.911201279,,,0,,,0
340001666OUT,,"Binfield Heath, Heathfield Close",,51.500675053,-0.924473155,,,0,,,0
340000094OPP,,"Gravel Road",,51.495724954,-0.930855974,,,0,,,0
340001665OUT,,"Bints Farm",,51.492077436,-0.934167829,,,0,,,0
340000269OPP,,"The Green",,51.488308253,-0.936963468,,,0,,,0
340001664OPP,,"Play Hatch Roundabout W",,51.478770206,-0.933253971,,,0,,,0
039026060002,,"Forge Close",,51.46530496,-0.958774908,,,0,,,0
039025050002,,"Amersham Road",,51.466267223,-0.956766355,,,0,,,0
039026420002,,"Ian Mikardo Way",,51.466453486,-0.952443271,,,0,,,0
039026780001,,"Nire Road",,51.467189956,-0.949331193,,,0,,,0
039026420001,,"Ian Mikardo Way",,51.466321207,-0.952734221,,,0,,,0
039025050001,,"Amersham Road",,51.466209825,-0.95637897,,,0,,,0
039026060001,,"Forge Close",,51.465213271,-0.958575454,,,0,,,0
039027320008,,"St Mary's Butts",,51.454154339,-0.973996488,,,0,,,0
039027180003,,"Russell Street (Tilehurst Road)",,51.451530391,-0.983481663,,,0,,,0
039026600002,,"Maitland Road",,51.452402517,-0.988672082,,,0,,,0
039025360002,,"Reading West Station",,51.452060064,-0.991716266,,,0,,,0
039027240002,,"Southcote Road (Tilehurst Road)",,51.451924798,-0.99481342,,,0,,,0
039025750002,,"Cranbury Road",,51.451809275,-0.998125996,,,0,,,0
039026910002,,"Parkside Road (Tilehurst Road)",,51.452239192,-1.002146236,,,0,,,0
039027700002,,"Tilehurst Road, Waverley Road",,51.451816209,-1.005278404,,,0,,,0
039027690003,,"Water Road",,51.452036064,-1.011073415,,,0,,,0
039026900002,,"Park Grove",,51.450978809,-1.013657885,,,0,,,0
039026650004,,"Meadway Precinct",,51.45083764,-1.018266094,,,0,,,0
039027850002,,"Stoneham Close Footpath",,51.450668095,-1.020572304,,,0,,,0
039025840002,,"Usk Road",,51.451102408,-1.023052695,,,0,,,0
039025080001,,"Ash Road",,51.453263311,-1.032073478,,,0,,,0
039026850002,,"Ogmore Close",,51.455359403,-1.036562812,,,0,,,0
039025020002,,"Alford Close",,51.456739168,-1.037051918,,,0,,,0
039027570001,,"Tilehurst Triangle",,51.458845708,-1.041743109,,,0,,,0
039025780002,,"Crescent Road",,51.462389929,-1.043022007,,,0,,,0
039026950001,,"Pierces Hill Top",,51.463407166,-1.044267502,,,0,,,0
039026940001,,"Pierces Hill Foot",,51.463836201,-1.04726714,,,0,,,0
039026940003,,"Lower Elmstone Drive",,51.462331561,-1.048003806,,,0,,,0
039025100001,,"Ashton Close",,51.460179716,-1.046551584,,,0,,,0
039026800002,,"Normanstead Road",,51.459429452,-1.048280077,,,0,,,0
039028050002,,"Chapel Hill, Westwood Glen",,51.460229804,-1.05050891,,,0,,,0
030052760002,,"Hall Place Farm",,51.460104067,-1.053865327,,,0,,,0
030058550002,,"The Birchwoods",,51.457544174,-1.057559726,,,0,,,0
030053710002,,"Little Heath School",,51.4542724,-1.059652353,,,0,,,0
030058560002,,"Stratford Way",,51.450952344,-1.059695791,,,0,,,0
030050570003,,"Bitterne Avenue",,51.451343096,-1.055730167,,,0,,,0
030055440002,,Springfield,,51.452977592,-1.053249851,,,0,,,0
030056570002,,"Wellfield Close",,51.454854307,-1.050706764,,,0,,,0
030056510001,,"Hildens Drive, Warborough Avenue",,51.456115421,-1.048766372,,,0,,,0
039025100002,,"Ashton Close",,51.45982851,-1.04648693,,,0,,,0
039026940004,,"Lower Elmstone Drive",,51.463778879,-1.047959303,,,0,,,0
039026940002,,"Pierces Hill Foot",,51.464025582,-1.047335174,,,0,,,0
039026950002,,"Pierces Hill Top",,51.46346916,-1.044151046,,,0,,,0
039025780001,,"Crescent Road",,51.461415104,-1.042567374,,,0,,,0
039027570002,,"Tilehurst Triangle",,51.458366401,-1.0414077,,,0,,,0
039025020001,,"Alford Close",,51.457693317,-1.037175778,,,0,,,0
039026850001,,"Ogmore Close",,51.455295053,-1.036391456,,,0,,,0
039025840001,,"Usk Road",,51.451364923,-1.023262963,,,0,,,0
039027850001,,"Stoneham Close Footpath",,51.450809415,-1.020267067,,,0,,,0
039026650001,,"Meadway Precinct",,51.450826852,-1.015906178,,,0,,,0
039026900001,,"Park Grove",,51.451218882,-1.013336105,,,0,,,0
039027690002,,"Water Road",,51.452329831,-1.00965669,,,0,,,0
039027700001,,"Tilehurst Road, Waverley Road",,51.452446941,-1.004372416,,,0,,,0
039026910001,,"Parkside Road (Tilehurst Road)",,51.452140471,-1.001112195,,,0,,,0
039025750001,,"Cranbury Road",,51.451965687,-0.997489346,,,0,,,0
039027240001,,"Southcote Road (Tilehurst Road)",,51.452002605,-0.993401342,,,0,,,0
039025360001,,"Reading West Station",,51.452250297,-0.990834188,,,0,,,0
039026600001,,"Maitland Road",,51.452581253,-0.987502404,,,0,,,0
039027560001,,"Tilehurst Station",,51.471074537,-1.029709842,,,0,,,0
039027120002,,"Roebuck Hotel",,51.473598476,-1.034825297,,,0,,,0
030055060001,,"Roebuck Rise",,51.474734778,-1.038516174,,,0,,,0
030056220001,,"Theobald Drive",,51.475350405,-1.041224614,,,0,,,0
030054510002,,"Oxford Road",,51.476128264,-1.043987333,,,0,,,0
030054900001,,"Purley on Thames, Sherwood Rise",,51.480657055,-1.052475368,,,0,,,0
030056670001,,"Westbury Lane",,51.481170434,-1.057044141,,,0,,,0
030050420002,,"Beech Road",,51.480877734,-1.062032771,,,0,,,0
030054880001,,"Purley Hall Gatehouse",,51.48010012,-1.069392877,,,0,,,0
030054550001,,"Primary School",,51.481964251,-1.077721863,,,0,,,0
030054540001,,"Pangbourne Library",,51.48356652,-1.083680527,,,0,,,0
030057410001,,"Old Post Office",,51.483316555,-1.08737227,,,0,,,0
030057500001,,"Stokes View",,51.481690167,-1.090990522,,,0,,,0
030057490001,,"Pangbourne Cemetery",,51.480480112,-1.094974684,,,0,,,0
030053770002,,"Lower Bowden Farm",,51.480156343,-1.111753115,,,0,,,0
030050700001,,"Bowden Green",,51.479261125,-1.122325125,,,0,,,0
030056500001,,Wakemans,,51.479232397,-1.126088968,,,0,,,0
030055150001,,"Knappswood Close",,51.47914745,-1.132525067,,,0,,,0
030055930002,,"St Stephens Church",,51.479124569,-1.136687949,,,0,,,0
030054990002,,"Red Lion PH",,51.48095257,-1.142299886,,,0,,,0
030050160001,,"Aldworth Road",,51.482814152,-1.146038061,,,0,,,0
030053440003,,"Upper Basildon, Captains Gorse",,51.485284734,-1.151294407,,,0,,,0
030058670001,,"Emery Acres",,51.485423295,-1.147487138,,,0,,,0
030050410001,,Beckfords,,51.484307621,-1.146154189,,,0,,,0
030054990001,,"Red Lion PH",,51.480768759,-1.141756116,,,0,,,0
030055930001,,"St Stephens Church",,51.479235547,-1.136409663,,,0,,,0
030055150002,,"Knappswood Close",,51.479314531,-1.132308202,,,0,,,0
030056500002,,Wakemans,,51.479350345,-1.126230715,,,0,,,0
030050700002,,"Bowden Green",,51.479363907,-1.122025648,,,0,,,0
030053770001,,"Lower Bowden Farm",,51.480279821,-1.112302249,,,0,,,0
030057490002,,"Pangbourne Cemetery",,51.480605199,-1.094871406,,,0,,,0
030057500002,,"Stokes View",,51.481747567,-1.091435806,,,0,,,0
030054570001,,"The George Hotel",,51.484109074,-1.086377148,,,0,,,0
030054540002,,"Pangbourne Police Station",,51.48327059,-1.081483059,,,0,,,0
030054550002,,"Primary School",,51.482077766,-1.076149873,,,0,,,0
030054880002,,"Purley Hall Gatehouse",,51.480004047,-1.068617217,,,0,,,0
030050420001,,"Beech Road",,51.481178221,-1.061378578,,,0,,,0
030054900002,,"Purley on Thames, Sherwood Rise",,51.480718707,-1.052315685,,,0,,,0
030054510001,,"Oxford Road",,51.476432097,-1.044859332,,,0,,,0
030056220002,,"Theobald Drive",,51.475634279,-1.041852217,,,0,,,0
030055060002,,"Roebuck Rise",,51.474815572,-1.038500077,,,0,,,0
039027120001,,"Roebuck Hotel",,51.473451552,-1.034454043,,,0,,,0
039027560003,,"Tilehurst Station",,51.470888895,-1.029008305,,,0,,,0
039026100013,,"Friar Street",,51.456648939,-0.975466232,,,0,,,0
039028740002,,"Rose Kiln Lane North",,51.44245186,-0.976618412,,,0,,,0
039028470001,,"Kennet Island turn",,51.430782263,-0.978616073,,,0,,,0
039028540001,,"400 Longwater Avenue",,51.422847118,-0.996098535,,,0,,,0
039028550001,,"500 Longwater Avenue",,51.420341191,-0.995376819,,,0,,,0
039028570001,,"Kennet Island turn",,51.431921113,-0.978536738,,,0,,,0
039028740001,,"Rose Kiln Lane North",,51.444583217,-0.975621092,,,0,,,0
035059860001,,"Mereoak Park and Ride",,51.405924468,-0.979944623,,,0,,,0
035059630001,,"Thames Valley P&R",,51.45909329,-0.943521618,,,0,,,0
039026690004,,"Minster Street",,51.454612793,-0.971928102,,,0,,,0
035087100001,,"Winnersh Triangle Park and Ride",,51.436884867,-0.891443194,,,0,,,0
039028010001,,"Eldon Road",,51.453743429,-0.957987278,,,0,,,0
039025920005,,"King Street",,51.4549903,-0.969861497,,,0,,,0
039028560001,,"Little Lea",,51.417095671,-0.973753123,,,0,,,0
035080020001,,"Hartley Court Turn",,51.409267634,-0.975116264,,,0,,,0
039027050001,,"Campus Reading International",,51.415351261,-0.975328396,,,0,,,0
035080120001,,"Mereoak Lane Turn",,51.407367879,-0.973807238,,,0,,,0
035080140001,,"Three Mile Cross Post Office",,51.404189064,-0.973274558,,,0,,,0
035080160001,,"Sevenoaks Drive",,51.400855272,-0.972501036,,,0,,,0
035080180001,,"St Michaels Hall",,51.39754155,-0.972992125,,,0,,,0
035080200001,,"Hyde End Road",,51.393763732,-0.973881603,,,0,,,0
035080220001,,"Spencers Wood PO Southbound",,51.391457153,-0.97437874,,,0,,,0
035080240001,,"Back Lane",,51.386117289,-0.973506501,,,0,,,0
035080280001,,"The Mill House",,51.382809586,-0.966496152,,,0,,,0
035080300001,,"Swallowfield Street",,51.38012912,-0.95928579,,,0,,,0
035080320001,,Swallowfield,,51.378309279,-0.958895998,,,0,,,0
035080340001,,"Swallowfield Grange",,51.377371111,-0.963630029,,,0,,,0
035080360001,,"Charlton Lane",,51.374131394,-0.967409886,,,0,,,0
035080380001,,"Goddards Farm",,51.370802234,-0.966148714,,,0,,,0
035080400001,,"Maythorne Stores",,51.36586838,-0.965441016,,,0,,,0
035080420001,,"The Bull",,51.36318283,-0.964768964,,,0,,,0
035059610001,,"The Square",,51.394649698,-0.971346414,,,0,,,0
035059600001,,"Grovelands Road",,51.39416619,-0.965449787,,,0,,,0
035059670002,,"Peartree Walk",,51.394876863,-0.96040299,,,0,,,0
035059820002,,"Bays Crescent",,51.397998736,-0.960590978,,,0,,,0
035059690001,,"Spencers Wood Fullbrook Avenue",,51.399178019,-0.957703633,,,0,,,0
035059680002,,"Lawrence Place",,51.401484097,-0.953122876,,,0,,,0
035059550001,,"Clarendon Row",,51.4037374,-0.953718378,,,0,,,0
035059560001,,"Shinfield View",,51.404773358,-0.947900913,,,0,,,0
035059750001,,TVSP,,51.414426324,-0.940465912,,,0,,,0
035080020002,,"Hartley Court Turn",,51.40934754,-0.974999453,,,0,,,0
035080460001,,"Dog And Partridge",,51.360890722,-0.96690326,,,0,,,0
1900HAA10136,,"St Legers Way",,51.361135681,-0.963077175,,,0,,,0
035080440002,,Portway,,51.361524293,-0.963298213,,,0,,,0
035080400002,,"Maythorne Stores",,51.366088074,-0.965881369,,,0,,,0
035080380002,,"Goddards Farm",,51.370912017,-0.966361734,,,0,,,0
035080360002,,"Charlton Lane",,51.375117278,-0.967042892,,,0,,,0
035080340002,,"Swallowfield Grange",,51.377440618,-0.963355465,,,0,,,0
035080320002,,Swallowfield,,51.378741116,-0.95790914,,,0,,,0
035080300002,,"Swallowfield Street",,51.380207163,-0.959973734,,,0,,,0
035080280002,,"The Mill House",,51.382710694,-0.966498379,,,0,,,0
035080240002,,"Back Lane",,51.386199711,-0.973677108,,,0,,,0
035080220002,,"Spencers Wood PO Northbound",,51.391781554,-0.974457724,,,0,,,0
035080200002,,"Hyde End Road",,51.394016338,-0.973976566,,,0,,,0
035080180002,,"St Michaels Hall",,51.398332308,-0.972931296,,,0,,,0
035080160002,,"Sevenoaks Drive",,51.400586952,-0.972665176,,,0,,,0
035080140002,,"Three Mile Cross Post Office",,51.405432477,-0.973563011,,,0,,,0
035059640001,,Hawthorn,,51.412812031,-0.941892834,,,0,,,0
035059560002,,"Shinfield View",,51.404939267,-0.947350788,,,0,,,0
035059550002,,"Clarendon Row",,51.403609999,-0.953548768,,,0,,,0
035059680001,,"Lawrence Place",,51.401437478,-0.952937056,,,0,,,0
035059690002,,"Spencers Wood Fullbrook Avenue",,51.39910597,-0.957690895,,,0,,,0
035059820001,,"Bays Crescent",,51.397934276,-0.960419944,,,0,,,0
035059670001,,"Peartree Walk",,51.39502096,-0.960428471,,,0,,,0
035059600002,,"Grovelands Road",,51.394130356,-0.965464969,,,0,,,0
035059610002,,"The Square",,51.394504468,-0.971191562,,,0,,,0
035059780001,,"Croft Road",,51.394111882,-0.956280787,,,0,,,0
03700356,,"St Andrews Way",,51.520253759,-0.649151007,,,0,,,0
03700357,,"Everitts Corner",,51.519900449,-0.644246512,,,0,,,0
03700358,,"Burnham Lane",,51.520619621,-0.639569576,,,0,,,0
03700251,,"Dover Road",,51.519576571,-0.632610227,,,0,,,0
03700252,,"Westgate Retail Park",,51.517269967,-0.627591673,,,0,,,0
03700253,,"Leigh Road",,51.515647292,-0.623403303,,,0,,,0
03700254,,"Twinches Lane North",,51.514704557,-0.620462904,,,0,,,0
03700255,,"Salt Hill Three Tuns",,51.512798137,-0.613588732,,,0,,,0
03700381,,"Windmill Road",,51.511871482,-0.608990978,,,0,,,0
03700382,,"Salt Hill Park",,51.511661008,-0.604140952,,,0,,,0
03700337,,Library,,51.510639564,-0.596909288,,,0,,,0
036006758758,,"Knights Place",,51.474693248,-0.614643337,,,0,,,0
490007705N,,"Hammersmith, Hammersmith Bridge Road",,51.492193142,-0.225568941,,,0,,,0
490008990J,,"Latymer Court",,51.493317187,-0.219042775,,,0,,,0
490000170TS,,"Kensington Station",,51.496159982,-0.208240038,,,0,,,0
490010984S,,"Phillimore Gardens",,51.500043416,-0.196088382,,,0,,,0
490011750E1,,"Royal Albert Hall",,51.501645427,-0.178720769,,,0,,,0
490000130E,,"Knightsbridge Barracks",,51.501855298,-0.166220334,,,0,,,0
490000119R,,"Hyde Park Corner",,51.502888886,-0.154147553,,,0,,,0
490004555P,,"Buckingham Palace Road  Bressenden Place",,51.497205012,-0.144421982,,,0,,,0
4900074807,,"Victoria, Buck'ham Palace Rd",,51.493622275,-0.147030869,,,0,,,0
490000248UA,,Victoria,,51.495269581,-0.145998841,,,0,,,0
490000119L,,"Hyde Park Corner",,51.502782923,-0.153128816,,,0,,,0
490011822W,,"Knightsbridge Barracks",,51.501699594,-0.166039276,,,0,,,0
490011750W1,,"Royal Albert Hall",,51.501455093,-0.179203829,,,0,,,0
490000110R,,"Kensington, High Street/Wrights Lane",,51.500674104,-0.193830244,,,0,,,0
490008652E,,"Kensington (Olympia) Station",,51.495562868,-0.21002333,,,0,,,0
490008990S,,"Hammersmith Road",,51.493086386,-0.218648415,,,0,,,0
490007703KA,,"Hammersmith, Hammersmith Bridge Road",,51.491659298,-0.226540404,,,0,,,0
